,City,Latitude,Longitude
0,Kopenhagen,55.6867243,12.5700724
1,Nürnberg,49.453872,11.077298
2,Sankt Petersburg,59.9606739,30.1586551
3,Karlsbad,50.2306216,12.8701437
4,Elzach,48.1757263,8.0718474
5,Neuenburg,46.9895828,6.9292641
6,St. Urban,,
7,Luzern,47.0505452,8.3054682
8,Wien,48.2083537,16.3725042
9,Freiburg im Üechtland,46.8055656,7.1612669
10,Les Genevez,47.2567802,7.1293599
11,Grandson,46.8086306,6.6417532
12,Moudon,46.6680664,6.8003478
13,Beinwil,47.2302283,8.3422897
14,Madiswil,47.1648367,7.7968153
15,Pfaffnau,47.2273716,7.8984229
16,Genua,44.40726,8.9338624
17,Mailand,45.4641943,9.1896346
18,Speicher,49.9354628,6.6389817
19,Trogen,50.3639129,11.9531608
20,Aarburg,47.3206417,7.8993599
21,Kanton Schwyz,47.0571976,8.7222073
22,Azmoos,47.0808947,9.4754878
23,Babelsberg,52.3922047,13.108012731196634
24,Persenbeug-Gottsdorf,48.1999396,15.109379193305553
25,München,,
26,Sterzing,46.8963235,11.4319398
27,Suckowenhof,,
28,Straßburg,48.584614,7.7507127
29,Kensington and Chelsea,51.50379515,-0.20078938323179596
30,Offenbach am Main,50.1055002,8.7610698
31,London-Westminster,51.4945617,-0.1318579
32,Schwellbrunn,47.352345,9.2491335
33,Genf,46.2017559,6.1466014
34,Frankfurt am Main,50.1106444,8.6820917
35,Pfäfers,46.9908765,9.5012318
36,Schinznach-Bad,47.4515074,8.1676758
37,Schänis,47.1591758,9.0466793
38,Rapperswil,47.2266532,8.8164042
39,Nesslau-Krummenau,47.2487748,9.1694948
40,Wolfhalden,47.4526711,9.5507149
41,Bad Ragaz,47.0025282,9.5016438
42,Rheineck,47.4706336,9.584108
43,Lindau (Bodensee),47.550753,9.6926624
44,Vals,44.6553304,4.365739
45,Hüningen,47.5941514,7.5794613
46,Dornach,57.8796955,-4.0278869
47,Rufach,47.9569146,7.2994054
48,Guise,49.8982325,3.6262542
49,Porrentruy,47.4171297,7.0761342
50,Zwingen,47.4377543,7.5280899
51,La Neuveville,47.0637688,7.0927997
52,Mariastein,47.5261836,12.05395
53,Gorgier,46.9035345,6.7805424
54,La Grandville,49.77967,4.79555
55,Pfalzburg,48.767098,7.2586207
56,Hégenheim,47.5624713,7.5261691
57,Salins-les-Bains,46.9402176,5.8779343
58,Romainmôtier,46.6932583,6.4611912
59,Altona,53.5864667,9.777670940463931
60,Antwerpen,51.2211097,4.3997081
61,Gempen,47.475167,7.6602844
62,Rodersdorf,,
63,Riegel am Kaiserstuhl,48.1509439,7.7504953
64,Mouthe,46.7115978,6.1932371
65,Les Cullayes,46.5730628,6.7537317
66,Nidau,47.1250287,7.241157
67,Coppet,46.3164464,6.1927752
68,Champagnole,46.7456049,5.9083581
69,Klus,52.3917066,8.4550664
70,Bechburg,47.3334544,7.7670112
71,Oberbipp,47.2613485,7.6610534
72,Neu Falkenstein,50.1900474,8.476551096034367
73,Sumiswald,47.0285646,7.7449828
74,Font,46.8360097,6.8241395
75,Chenevières,48.5189686,6.6326157
76,Neapel,40.8358846,14.2487679
77,Jauernig,50.3919833,17.0025022
78,Sklov,54.21169,30.24519
79,Friedersdorf,50.6051808,11.03455886523884
80,Sarepta,32.8929177,-93.4485059
81,Mülhausen,47.7467233,7.3389937
82,Riemsloh-Hoyel,,
83,Minden (Westf),52.2905618,8.9344598
84,Zang,48.7295322,10.0740988
85,Adelby,54.78027125,9.468094735723334
86,Bickelsberg,48.2925828,8.6986744
87,Malmsheim,48.7745882,8.9035798
88,Kleinsachsenheim,48.9700957,9.0695757
89,Breslau,51.1089776,17.0326689
90,Esslingen am Neckar,48.7427584,9.3071685
91,Durlach,48.9994421,8.4702066
92,Brüssow,53.3994602,14.126711
93,Leer (Ostfriesland),53.2332168,7.4567555
94,Littfeld,51.0031569,7.9778438
95,Wilhelmsbad,50.144536849999994,8.889064756097373
96,Schloss Gottorf,54.51185315,9.540566890802062
97,Louisenlund,55.1366326,15.067600828816548
98,Bühler,47.3743991,9.4233806
99,Seengen,47.3252906,8.2079184
100,Sulgen,47.5452654,9.181648
101,Saanen,46.489756,7.2615837
102,Altkirch,47.6238204,7.2401542
103,Biel,47.1402077,7.2439029
104,Arisdorf,47.5123916,7.7654983
105,Urnäsch,47.3178621,9.2834506
106,Sirnach,47.461402,8.9934296
107,Seelisberg,46.9408848,8.5578958
108,Rüte,47.303675,9.457086
109,Pfersee,48.3617159,10.8675185
110,Avenches,46.879575,7.040941
111,Gelterkinden,47.4640069,7.8544495
112,"Berkeley, Calif.",37.8708393,-122.272863
113,Frankreich,46.603354,1.8883335
114,Kairo,30.0443879,31.2357257
115,Rom,41.8933203,12.4829321
116,"New York, NY",40.7127281,-74.0060152
117,Mettenheim,49.7388606,8.3250304
118,Triest,45.6496485,13.7772781
119,Châtres,48.7089097,2.8095273
120,Lüttich,50.6450944,5.5736112
121,Halle (Saale),51.4825041,11.9705452
122,Wildhaus,47.2033184,9.3507024
123,Warschau,52.2319581,21.0067249
124,Rohrbach,49.0460974,7.2655417
125,Wiedlisbach,47.2524377,7.6471049
126,Wangen an der Aare,47.2353036,7.65517
127,Lausen,47.4736459,7.7591139
128,Reigoldswil,47.3974255,7.6918178
129,Ziefen,47.4305811,7.7063432
130,Moskau,55.7505412,37.6174782
131,Redwitz,50.1689647,11.2075788
132,Montmirail,48.8708848,3.5381991
133,Pieterlen,47.1750219,7.3361682
134,Muri bei Bern,46.9290477,7.4870909
135,Oberseebach,47.3579346,13.8166748
136,Tenniken,47.4363734,7.8116851
137,Frenkendorf,47.5028543,7.7138283
138,Langenbruck,47.3498274,7.7681007
139,Rued,49.7942406,5.8217518
140,Mogelsberg,47.3607886,9.1358183
141,Langnau am Albis,47.2876627,8.5372813
142,Läufelfingen,47.3958161,7.8546951
143,Buus,47.5055264,7.8650401
144,Waldstatt,47.3563362,9.2838414
145,Altnau,47.61241,9.260705
146,Bargen,47.791799,8.6102341
147,Teufen,47.392763,9.3947222
148,Wallerstein,48.8995141,10.452811
149,Aarwangen,47.239082,7.7701468
150,Lohn-Ammannsegg,47.1710866,7.5267532
151,Engelberg,46.8223497,8.4043996
152,Attiswil,47.2492334,7.6133081
153,Escholzmatt,46.9140785,7.9348793
154,Malans,47.2635,5.59638
155,Riedholz,48.2620477,15.290397
156,Schönenwerd,47.3721555,8.0054417
157,Oberrieden,48.0884013,10.4273041
158,Murten,46.9288643,7.1163909
159,Felben-Wellhausen,47.575645,8.939863
160,Wolfwil,47.26971,7.794652
161,Klosteranlage der Kartause La Valsainte,,
162,Niedergösgen,47.3731476,7.9926844
163,Givet,50.1362582,4.8248698
164,Unterseen,46.6871654,7.8496369
165,Oßmannstedt,51.017154149999996,11.426495006516372
166,Büsserach,47.3915791,7.5405238
167,Bollweiler,47.8600613,7.2623733
168,Oberndorf-Bochingen,48.3002072,8.6170641
169,Zerbst/Anhalt,51.9640339,12.085502
170,Venedig,45.4371908,12.3345898
171,Bad Muskau,51.5470046,14.7215146
172,Königsberg,54.70464845,20.456566646621738
173,Anspach,50.3001549,8.506474
174,Arendsee-Dessau,52.8087845,11.4760659
175,Loschwitz,51.0555235,13.8154546
176,Chiavenna,46.3197862,9.3984945
177,Intra,45.9366367,8.5725755
178,Hohenheim,48.7118,9.2113
179,Schlosswil,46.9068983,7.614307977918951
180,Oberglatt,47.4768036,8.5203554
181,Obergösgen,47.364104,7.951209
182,Airolo,46.5290309,8.6086045
183,Hofwil,47.02128045,7.461744400000001
184,Wildegg,47.4153808,8.1636356
185,Rothenburg,49.3772526,10.1790017
186,Urserental,,
187,Alpnach,46.9411661,8.2736829
188,Kienberg,48.0358261,12.46226
189,Auvernier,46.976104199999995,6.8741475002697285
190,Sargans,47.0482641,9.4401995
191,Neuwiller,47.5234183,7.5156516
192,Montsevelier,47.3598883,7.510694388985991
193,Egerkingen,47.3225009,7.7947889
194,Arnheim,51.984257,5.9108573
195,Schloss Wartenfels,47.3906954,7.9346945
196,Angenstein,47.46331645,7.604887202760657
197,Gottlieben,47.6640263,9.1343895
198,Herzogenbusch,51.6889387,5.303116
199,Oberbuchsiten,47.3117986,7.7652017
200,Kaysersberg,48.157187300000004,7.241094008940136
201,Kriegstetten,47.175109,7.59906
202,Veytaux,46.4215725,6.9275648
203,Erlach,47.0433028,7.0975115
204,Ellikon an der Thur,47.5633514,8.8242689
205,Mellingen,50.9410689,11.395064
206,Neu-Hanau,,
207,Köthen (Anhalt),51.751033,11.973698
208,Spielbach,47.4593161,12.6460278
209,Mohrungen,53.9119982,19.9279895
210,Timmel,53.3636587,7.5218148
211,Bützow,53.8500047,11.9832952
212,Hindenburg,53.0939254,13.460274
213,Beggerow,53.8258947,13.0533071
214,Oberbrüden,48.9552162,9.5069994
215,Kredenbach,49.851031,9.534899
216,Grund,49.6102782,6.1359038
217,Monnikendam,52.1536903,5.3924365892289305
218,Bad Boll,48.638716,9.6167744
219,Dürrn,48.9565867,8.7552672
220,Elberfeld,51.2573333,7.1458183
221,Teningen-Köndringen,48.1391463,7.8054205
222,Mussbach,49.3688978,8.1717618
223,Sissach,47.4634767,7.8125639
224,Waldenburg,50.785221,16.284640336127822
225,Kerentzen,,
226,Oberdiessbach,46.8399962,7.6192848
227,Elgg,47.4902329,8.8669115
228,Rümlingen,47.4244356,7.8497922
229,Laufen,47.9354122,12.930309
230,Gondiswil,47.144579,7.8718925
231,Benken,47.6537872,8.6537634
232,Beckenhof,49.3157705,11.4376817
233,Gsteig bei Gstaad,46.3855821,7.2673253
234,Matt,46.9597027,9.1710353
235,Langnau im Emmental,46.9392339,7.7882673
236,Öflingen,47.5921621,7.9138159
237,Bretzwil,47.3970067,7.6508005
238,"Wyler, Elsass",49.468468,5.9326783
239,Diesbach,46.9519467,9.0323254
240,Saint-Pol-de-Léon,48.6849601,-3.9868641
241,Schloss Beaulieu,46.480427000000006,-0.7677760862887257
242,Brüssel,50.8465573,4.351697
243,Malix,46.8118703,9.5313669
244,Sainte-Menehould,49.0904192,4.8967637
245,Valençay,47.161511,1.5666078
246,Offenbach,50.1055002,8.7610698
247,Obermassfeld,50.5290351,10.4401042
248,Neunkirch,47.689983,8.5000759
249,Hain,50.706599600000004,12.088712684661726
250,Dulwich,51.4418786,-0.0843244
251,Birstein,50.3923,9.30438
252,Begnins,46.4411298,6.2492689
253,Herrnhut,51.000640950000005,14.716045782436524
254,Gnadenberg,47.9844133,15.1925941
255,Königsfeld im Schwarzwald,48.1401934,8.4194
256,Koenigsfeld,49.8492593,16.5399096
257,Waldersbach,48.4134801,7.2135392
258,Berschis,47.1060001,9.3463581
259,Trimbach,48.9399791,8.0235967
260,Heidenheim an der Brenz,48.6767637,10.152923
261,Frankenberg (Eder),51.0771933,8.7908312
262,Rothenfluh,47.4608887,7.914597
263,Abländschen,46.5786149,7.2920844
264,Lauenen bei Gstaad,46.4247066,7.3223985
265,Nettstal,,
266,Schwanden,46.9955628,9.0713622
267,Dussnang,47.4309534,8.9611134
268,Markirch,48.2476662,7.1851184
269,Kemnade,51.41209345,7.417593212008734
270,Berneck,47.4249019,9.6102137
271,Kerenzen,47.11642085,9.151735811133523
272,Grub,47.4481664,9.5094743
273,Oberstenfeld,49.0242983,9.3192878
274,Pleidelsheim,48.9596036,9.2045813
275,Lustnau,48.5306563,9.0857454
276,Deufstetten,49.0535973,10.22771
277,Dahle,48.5861563,7.5080572
278,Sörup,54.7169361,9.6673591
279,Sankt Margrethen,53.8921754,9.2539471
280,Weil,50.3673539,8.3860604
281,"Boston, Mass.",42.3554334,-71.060511
282,Zollikofen,46.9959463,7.4576417
283,Heiden,47.4421715,9.532089
284,Dottenwil,47.4770407,9.379633
285,Meldorf,54.08988,9.070633
286,Prag,50.0874654,14.4212535
287,Bozen,46.655945450000004,11.23021287087526
288,Eppishausen,48.1677834,10.5165068
289,Bubendorf,47.446684,7.73535
290,Därstetten,46.659917,7.492218
291,Weisbach,50.5592672,11.6003073
292,Königsfelden,47.480930900000004,8.215999328970351
293,Eichenbühl,49.7027308,9.3313801
294,Schinznach,47.4467994,8.1422836
295,Turbenthal,47.4368146,8.848521
296,Tuggen,47.2022792,8.9424794
297,Sils im Domleschg,46.7001997,9.4538996
298,Passériano,,
299,Cazis,46.7212988,9.4303829
300,Buochs,46.9739978,8.4205883
301,Lahr/Schwarzwald,48.338896,7.8710825
302,Schwende,47.285247150000004,9.39579203958195
303,Lutzenberg,47.459378,9.561572
304,Münsterlingen,47.631287,9.2329998
305,Walzenhausen,47.4506581,9.6017721
306,Degersheim,47.3735896,9.1990317
307,Hegi,47.5056755,8.7716453
308,Ennenda,47.033828,9.0779218
309,Wintersbourg (Elsass),48.7859173,7.1881884
310,Zilling (Elsass),48.7829501,7.2112564
311,Mönchaltorf,47.31279,8.7222749
312,Eschbourg,48.8136429,7.2962895
313,Buckten,47.4101163,7.8447464
314,Diegten,47.409937,7.809077
315,Bennwil,47.4041393,7.7801695
316,Engollon,47.042672249999995,6.923526372251624
317,Gais,46.8331565,11.9474837
318,Andermatt,46.6340499,8.5948148
319,Ellrich,51.587313,10.6649031
320,Cara,46.7555699,23.7800774
321,St. James Shut,,
322,Blackheath,51.4702789,0.005971056199696971
323,La Ferté,46.9417245,5.6607254
324,Florenz,43.7697955,11.2556404
325,Stein am Rhein,47.6597323,8.8596823
326,Stettlen,46.9583564,7.5251524
327,Wintersingen,47.4949559,7.823229
328,Rüschlikon,47.307465,8.5546421
329,Österreich,47.59397,14.12456
330,Archangelsk,64.543022,40.537121
331,Russland,64.6863136,97.7453061
332,Skidal',53.5902309,24.2510704
333,Puschkin,59.722256,30.415731
334,Liepen,53.8856602,13.4671998
335,Friedberg (Hessen),50.3352682,8.7539306
336,Frankfurt-Seckbach,50.1434285,8.7258861
337,Uelitz,53.4755345,11.4383791
338,Oldenburg (Oldenburg),53.1389753,8.2146017
339,Eiche bei Reigoldswyl,,
340,Bernhardzell,47.4718745,9.3367704
341,Morillon,46.0838209,6.6772727
342,Marienwerder,53.7204653,18.937464130662192
343,Niederwil,47.3763559,8.2947614
344,Pilling,53.930206999999996,-2.9088352230010743
345,Lohn,52.665257,8.2363523
346,Madesimo,46.4362982,9.3584136
347,Feldkirch,47.8647485,7.2730686
348,Walenstadt,47.1229016,9.3140113
349,"Newburgh, NY",41.5034271,-74.0104179
350,Montaigre,47.3975736,7.0397013
351,Dessau,51.8309956,12.2430723
352,Haunstedt,,
353,Le Bignon-Mirabeau,48.1477847,2.9233609
354,Nennhausen,52.6038537,12.5072123
355,Kumengorod,,
356,Paddington,51.5163047,-0.1792423
357,Genvry,49.6122762,2.9907632
358,Peterwitz,51.0554637,16.8827634
359,Ampfingen,,
360,Bad Berka,50.9002644,11.2829778
361,Eisleben,51.5283282,11.5465911
362,Teplitz,50.6406644,13.8244461
363,Meersburg,47.6955538,9.2719656
364,Groslay,48.9867112,2.3458615
365,Interlaken,46.6855231,7.8585139
366,Padua,45.4077172,11.8734455
367,Diessenhofen,47.6875317,8.7492673
368,Stand Bern,46.6824667,7.5152073
369,[St. Gallen],47.425618,9.3762397
370,Böckten,47.4634028,7.8387155
371,Trüllikon,47.6377265,8.6934163
372,Will,41.4194058,-87.9994754
373,Silvaplana,46.4599334,9.7959165
374,Kiesen,46.8195399,7.5848154
375,Gottstatt,47.1362023,7.3130122
376,"Dayton, Ohio",39.7589478,-84.1916069
377,Neu-Hardenberg,40.0907006,-74.0811114
378,Želiezovce,48.0492258,18.6583548
379,Passeier,46.8318323,11.1672933
380,Tonnerre,47.8565193,3.9733288
381,Brünn,49.1922443,16.6113382
382,Bex,46.2513776,7.0123881
383,Schönengrund,47.3280092,9.2267766
384,Hundwil,47.3656744,9.3182713
385,"Mount Vernon, Ill.",38.3172715,-88.9031201
386,Sachseln,46.8688851,8.2392021
387,Näfels,47.0997753,9.0630051
388,Lichtensteig,47.3231436,9.0874862
389,Uznach,47.2250882,8.98556
390,Winterthur-Seen,47.4874314,8.7667533
391,Bischofszell,47.4937698,9.2409168
392,Köpenick,52.458577,13.5815192
393,Obererlinsbach,47.4103271,8.0019516
394,Elbing,54.1558708,19.4044583
395,Ciudad Rodrigo,40.5974369,-6.5336117
396,Andelfingen,48.153565,9.411607943916513
397,Saint-Hippolyte,44.8698075,-0.1218554
398,Saint Asaph,40.0027669,-75.22673995532148
399,Lenk,46.4558879,7.4416976
400,Roitham,47.9591077,12.4497576
401,Wald (Steiermark),46.9074363,15.2330819
402,Eferding,48.3082607,14.0203999
403,Steuden-Etzdorf,51.421010800000005,11.771205764520266
404,Hochstift Basel,,
405,Bernhardszell,,
406,Ebringen,47.957885,7.7755546
407,Spandau,52.5192672,13.195439
408,Trzebiechów,52.0226174,15.7357566
409,Steinbeck,52.704448299999996,13.943641712714191
410,Binzen,47.6312281,7.6243455
411,Lintel,53.2146209,8.7821498
412,Töss,47.4547376,8.774664
413,Arenenberg,47.6724085,9.0601312
414,Bürglen,47.2575984,8.5373809
415,Unna-Königsborn,51.5532388,7.687776
416,Krakau,50.0469432,19.997153435836697
417,Isfahan,33.1881386,52.4981635
418,Brienne-le-Château,48.3941801,4.5268522
419,Münster (Westf),51.9564055,7.635792
420,Birr,47.4345344,8.2029778
421,Wandsbek,53.6494967,10.113758388499967
422,Hatshausen,53.3484095,7.4765178
423,Wartau,47.0926493,9.454809218050077
424,Luchsingen,46.9666929,9.0370301
425,Hauptwil,47.4798037,9.2513948
426,Schöntal,49.34632785,9.546062862141635
427,Kirchleerau,47.2755071,8.0702913
428,Höngg,47.4016604,8.4977145
429,Bayersdorf,50.5809158,11.0025729
430,Egnach,47.5432155,9.3814541
431,Sankt Georgen,47.1393978,16.568593128008885
432,Schleitheim,47.7488818,8.4845902
433,Tüllingen,47.5978077,7.6407418
434,Knonau,47.2251463,8.4573072
435,Staufen,47.3799837,8.1665273
436,Eem,52.2239348,5.3147372
437,Neunforn,47.6006714,8.7794938
438,Walperswil,47.0597836,7.2268525
439,Litzelstetten-Mainau,47.7052926,9.19451284399879
440,Morez,46.527073099999996,6.01616871446755
441,Essertines-sur-Rolle,46.4924891,6.3170166
442,Courrendlin,47.3392989,7.3735698
443,Luxeuil-les-Bains,47.817177,6.3808865
444,Kirchdorf,52.5966234,8.8355037
445,Büren an der Aare,47.1398953,7.3722632
446,Matzendorf,48.1103277,14.934407
447,Welschenrohr,47.2806485,7.5252234
448,Seewen,47.4354627,7.6582649
449,Kurzdorf,47.5602231,8.8843065
450,Jegenstorf,47.0498143,7.5085719
451,Bätterkinden,47.1317799,7.5398908
452,Kappel,54.6641769,9.9317595
453,Thunstetten,47.2023549,7.7582873
454,Weissenstein,58.8869266,25.5699121
455,Balsthal,47.3140365,7.6947764
456,Oberdorf,49.2746965,6.5944792
457,Kleinlützel,47.4259552,7.4172702
458,Luterbach,47.2145742,7.5839238
459,Champagne-sur-Oise,49.1339431,2.2312397
460,Attisholz,47.2257386,7.5757213
461,Bellelay,47.2630554,7.168377136111111
462,Siders,46.2922522,7.5323195
463,Blumenstein,46.7412152,7.5208259
464,Salenstein,47.6694793,9.05922
465,Lemberg,49.0006115,7.3788996
466,Köln,50.938361,6.959974
467,Louveciennes,48.8616969,2.1130641
468,Finkenstein,46.5659297,13.8713597
469,Écouen,49.0196554,2.3799378
470,Stollhofen,48.3520621,15.758707
471,Ilanz,46.775575,9.2054956
472,Saignelégier,47.2557997,6.9963585
473,Céligny,46.3505844,6.1949435
474,Heimberg,46.7871081,7.605935
475,Cortaillod,46.9432319,6.8458944
476,Hargesheim,49.8628901,7.82671
477,Linthal,47.9480886,7.1287943
478,Ebingen,48.2123702,9.0271181
479,Brestenberg,47.3196137,8.209943
480,Schöftland,47.3054517,8.0527946
481,Fluntern,47.3767769,8.5587745
482,Villingen im Schwarzwald,48.0578832,8.465255
483,Ramsau am Dachstein,47.4217532,13.6531171
484,Dirlewang,48.0018325,10.5025804
485,Zabern,48.7419909,7.3625953
486,Mühlehorn,47.1169267,9.1731832
487,Founex,46.3338174,6.1943733
488,Sachsenheim,48.9654062,9.0583956
489,Burg b. Magdeburg,52.2744115,11.8402498
490,Diersburg,48.3991692,7.9365804
491,Göteborg,57.7072326,11.9670171
492,Oberentfelden,47.3567549,8.0470858
493,St. Moritz,46.4978958,9.8392428
494,Pawlowsk,50.4520214,40.1399663
495,Bellach,47.2134073,7.4983313
496,Schloss Jegenstorf,47.047836700000005,7.5095472420158185
497,Burg Landskron Leymen,47.48837745,7.490748002864583
498,Utzenstorf-Landshut,47.1374471,7.548304002826528
499,Blotzheim,47.6014104,7.4966546
500,Schloss Bipp,47.26329885,7.651239827622674
501,Eglisau,47.5733207,8.5239827
502,Röthenbach im Emmental,46.8536951,7.7435504
503,Biberstein,47.4140667,8.0821155
504,Le Landeron,47.0554312,7.0702155
505,Sankt Blasien,47.0130836,6.9879483
506,Steinbrunn-le-Haut,47.6626861,7.3479226
507,Lauterbourg,48.9751103,8.1767166
508,Tavannes,47.220131,7.1986691
509,Barr,48.4088704,7.4492808
510,Clavadel,46.7678586,9.8155701
511,Breil/Brigels,46.7674063,9.0622332
512,Grindelwald,46.6242733,8.0367462
513,Wigoltingen,47.5967195,9.0320675
514,Silleri,11.3733535,78.3676962
515,Meltingen,47.3877576,7.5898528
516,"Pittsburgh, Pa.",40.4416941,-79.9900861
517,Oberdollendorf,50.6973984,7.1926083
518,Corcapolo,46.1687622,8.675811
519,Torricella-Taverne,46.0656774,8.924762
520,Athen,37.9755648,23.7348324
521,"Princeton, NJ",40.3496953,-74.6597376
522,Ascona,46.1554222,8.7707865
523,"New Brunswick, NJ",40.4862174,-74.4518173
524,Agrigent,37.3122991,13.57465
525,Oeffingen,48.8436983,9.2646623
526,Ermatingen,47.6693246,9.0798991
527,Sant'Andrea,44.7223275,8.5018626
528,Augst,47.5338077,7.7206018
529,"Athens, Ga.",33.9597677,-83.376398
530,"Cambridge, Mass.",42.3656347,-71.1040018
531,Thessaloniki,40.6403167,22.9352716
532,"Stanford, Calif.",37.426540700000004,-122.17030545534064
533,Herne- Wanne-Eickel,51.5317553,7.1644354
534,"New Haven, Conn.",41.3082138,-72.9250518
535,"Washington, DC",38.8950368,-77.0365427
536,Ludwigshafen am Rhein,49.4704113,8.4381568
537,Heidelberg-Handschuhsheim,49.4306859,8.6831779
538,Balmain,48.8685919,2.3040382
539,Wuppertal-Elberfeld,51.2695713,7.1495696
540,Larisa,39.6383092,22.4160706
541,Val Sinestra,46.8506998,10.3371746
542,"Albuquerque, NM",35.0841034,-106.650985
543,Bingen,49.9667,7.9
544,Bochum-Querenburg,51.4577906,7.2883183
545,Köln-Lindenthal,50.9359354,6.871246459161802
546,"Chapel Hill, NC",35.9131542,-79.05578
547,Büderich,51.632493749999995,6.582872702221536
548,Gingins,46.4094508,6.1779167
549,Vinzel,46.4476073,6.2793859
550,St. Blasien,47.7602106,8.131426
551,Badenweiler,47.8025477,7.6739717
552,Lenzerheide,46.7280297,9.5584408
553,Vatikanstadt,41.9034912,12.4528349
554,Löwen,50.879202,4.7011675
555,"Notre Dame, Ind.",41.704567749999995,-86.23822026017265
556,Duisburg-Hamborn,51.5027977,6.7723215
557,Erlenbach,49.1703333,9.2692171
558,Stuttgart-Plieningen,48.6947957,9.2295139
559,"Los Angeles, Calif.",34.0536909,-118.242766
560,Pam Mun Jom,,
561,"University Park, Pa.",34.7406465,-86.6230495
562,"Vancouver, Wash.",45.6306954,-122.6744557
563,Zollikerberg,47.3456637,8.5993998
564,Trient,46.0664228,11.1257601
565,La Rosiaz,46.522055,6.66206
566,Säckingen,47.5525538,7.9495387
567,Thann,47.8101008,7.1020957
568,Wittnau,47.9462735,7.814375
569,Amstelveen (Holland),52.2862177,4.852649259746028
570,Tel Aviv,32.0852997,34.7818064
571,Den Haag,52.07494555,4.2696802205364515
572,Vandœuvre,48.6599676,6.1724618
573,Biberach an der Riß,48.0984413,9.7899938
574,Parias,37.8380742,-5.3397384
575,Wabern,51.0941418,9.3292408
576,Linkenheim,49.1211976,8.405421444348217
577,Gailingen,47.6967256,8.75817899274303
578,Simancas,41.5902895,-4.8268115
579,Bad Godesberg,50.6850682,7.156323
580,Hohenbodman,47.8228517,9.2080997
581,Huntington (W.V.),32.52072055,-94.75619036771658
582,Brissago,45.9485671,8.7472331
583,"Chicago, Ill.",41.8755616,-87.6244212
584,Ennetbaden,47.4785764,8.3153871
585,Raron,46.309934,7.799589
586,Château-d'Oex,46.4739581,7.13056
587,Roscoff,48.7255816,-3.9828983
588,Köln-Sülz,50.9189277,6.9240929
589,Pfeffingen,47.4579858,7.589006
590,Cappel,49.0713212,6.8507862
591,Bremen-Farge,53.2051515,8.5165056
592,Monsummano Terme,43.8707438,10.8140162
593,"Edwardsville, Ill.",38.8114364,-89.953157
594,Köln-Marienburg,50.9014892,6.9774565
595,Oberhausen (Rheinland),49.0982792,8.0567911
596,Ebenhausen,47.9788079,11.4534323
597,Riggisberg,46.8106696,7.4798275
598,Garatshausen,47.924384,11.2897398
599,Melbeck,53.1782785,10.4084916
600,Düsseldorf-Oberkassel,51.2295816,6.7554498
601,Cardiff,51.4816546,-3.1791934
602,"La Jolla, Calif.",32.8401623,-117.2740777
603,Köniz-Liebefeld,46.9296752,7.4270554
604,Bayrischzell,47.6737001,12.0148837
605,Randa,46.100229,7.7828107
606,Herrliberg,47.2905574,8.6124721
607,Palma de Mallorca,39.58125245,2.7092683401782343
608,Berlin-Treptow,52.417893,13.6001848
609,Mexiko,19.4326296,-99.1331785
610,Berlin-Tempelhof,52.4711794,13.3774625
611,Otterfing,47.9100294,11.6712434
612,Rottach-Egern,47.6909599,11.7707109
613,Eichberg,46.1081377,11.3027058
614,Davos Platz,46.7917679,9.8210273
615,Asnières-sur-Seine,48.9105948,2.2890454
616,Söcking,48.0017434,11.3154861
617,Hinterkappelen,46.9678275,7.3774267
618,Mbo,13.2085198,120.60534709448388
619,Richmond (Va.),-32.8652,151.5012
620,Belmont (Calif.),37.5164926,-122.2941914
621,Minusio,46.1755251,8.8118196
622,Hamburg-Harburg,53.4557227,9.9917669
623,Lund,55.7029296,13.1929449
624,"Baltimore, Md.",39.2908816,-76.610759
625,Kitzbühel,47.4463585,12.3911473
626,"Saint Paul, Minn.",44.9497487,-93.0931028
627,Zumikon,47.3324061,8.6238228
628,Provinz Natal,-34.7181605,-58.4711537
629,Kibale Forest Reserve,0.8158541,30.6537883
630,Mümliswil,47.342768,7.7038598
631,Klosters,46.8829097,9.8750678
632,Valens,46.969373,9.4817696
633,Ingelheim am Rhein,49.9752749,8.0547274
634,Schupfart,47.5145465,7.9657804
635,Allmannshausen,47.9365798,11.3459203
636,Faulensee,46.6778648,7.6993664
637,Muralto,46.1737791,8.8011979
638,Bernhaupten,47.8240113,12.5954607
639,Berlin-Dahlem,52.4662332,13.2982478
640,Dutenhofen,50.5643678,8.5982542
641,Bühlerhöhe,48.674993799999996,8.229331394730487
642,Unterentfelden,47.3670123,8.0424171
643,Wenslingen,47.440539,7.907641
644,Oedt,51.3251047,6.3797495
645,Bukarest,44.4361414,26.1027202
646,Brohl (Rhein),50.188147,7.6295369
647,Solduno,46.1694976,8.7774866
648,Schlatt,47.6682701,8.699623514442717
649,Gwatt,47.1766078,9.0515895
650,Sins,47.1910321,8.3946059
651,Porz,50.8799229,7.0950744704864315
652,Köln-Mülheim,50.9581466,7.0135261
653,Höchst-Annelsbach,49.7809374,8.9601559
654,Hanstedt,53.2583495,10.0216724
655,Düsseldorf-Gerresheim,51.2202703,6.863938
656,Beratzhausen,49.0962934,11.8057872
657,Bad Herrenalb,48.7990507,8.4382557
658,"Evanston, Ill.",42.0470043,-87.6846053
659,"Madison, NJ",40.7598227,-74.417097
660,Wengen,46.6054411,7.9217237
661,Schneefelde,,
662,Leysin,46.3438701,7.0148403
663,Gebersheim,48.8124885,8.9788797
664,Bremen-Blumenthal,53.183655,8.5814147
665,Wuppertal-Barmen,51.2669712,7.1949423
666,Ronco (Ascona),46.1433367,8.7263426
667,Boudry,46.9487464,6.8358712
668,Hohenschwangau,47.5551938,10.7394834
669,Hamburg-Hummelsbüttel,53.6397433,10.0395255
670,Bottmingen,47.5234501,7.5748727
671,Bad Honnef,50.6448582,7.2272534
672,Rehovot,31.8952532,34.8105616
673,Bad Godesberg- Mehlem,50.6615942,7.1908362
674,Essen-Bredeney,51.4102283,6.9928497
675,"Bloomington, Ind.",39.1670396,-86.5342881
676,Karatschi,24.8546842,67.0207055
677,Naarden,52.2957628,5.1633636
678,"Philadelphia, Pa.",39.9527237,-75.1635262
679,Frankenberg/Sa.,50.9110365,13.0331023
680,Saint-Martin-Vésubie,44.0700773,7.2565002
681,Hilterfingen,46.7357185,7.6591147
682,Höfer,52.6814659,10.2493588
683,Bursinel,46.438423,6.3053467
684,Cannstatt,48.8048828,9.2146797
685,Oberursel (Taunus),50.2005518,8.580452
686,Tunbridge Wells,51.1371483,0.2673446
687,Oberengstringen,47.409141,8.4626927
688,Saint Sulpice,49.3505211,2.1221698
689,Riedhof,47.7684951,10.6807345
690,Watlington,51.6451586,-1.0043458
691,Gemünden (Wohra),50.9934023,8.9675885
692,Spiegel b. Bern,46.9260194,7.4362121
693,Meilen-Feldmeilen,47.2791676,8.6207481
694,Nenstrelitz,,
695,Weiden,46.0634632,13.2358377
696,Alger,36.7729309,3.0588291
697,Sürth,51.0593951,7.2983273
698,Paudex,46.5056892,6.6732336
699,Buchenbach,47.9607582,8.0092808
700,Norton (Mass.),41.9667666,-71.1869939
701,Teheran,35.6892523,51.3896004
702,Tripolis,32.896672,13.1777923
703,Westhofen,49.7002565,8.2492995
704,Berlin-Weißensee,52.5546193,13.4630018
705,Hannover-Kleefeld,52.3736696,9.7910051
706,Düdelingen,49.4786477,6.0847792
707,Ippendorf,50.7015202,7.0807205
708,"El Cerrito, Calif.",37.9154056,-122.301411
709,Frankfurt-Höchst,50.1027438,8.5420871
710,"Saint Petersburg, Fla.",27.7700475,-82.6359078
711,Neu-Isenburg,50.0464196,8.6717748
712,Luxemburg,49.6112768,6.129799
713,Magden,47.5283737,7.8116008
714,Oberlahnstein,50.3011686,7.6100803
715,Savyon,32.0495423,34.8781446
716,Nackenheim,49.9174374,8.342881
717,Kirn,49.7861037,7.4584035
718,Stuhlweißenburg,47.1910169,18.410811
719,Bielefeld-Dornberg,52.0511861,8.4780667
720,Carona,45.9574555,8.935792
721,Chania,35.5120831,24.0191544
722,Belgrad,44.8178131,20.4568974
723,Nir David,32.5027374,35.4567497
724,Bammental,49.3556982,8.7760658
725,Vitznau,47.0091184,8.4846569
726,Malmedy,50.4265348,6.0276059
727,"New York- Great Neck, NY",40.7880112,-73.7292068
728,Königstein-Mammolshain,50.1725416,8.4977688
729,Menziken,47.240878,8.187274
730,"Huntingdon, Pa.",40.3446332,-78.0281185
731,Appleby-in-Westmoreland,,
732,Paris (Ky.),38.2097987,-84.2529869
733,Starnberg-Söcking,48.0017434,11.3154861
734,Crans-sur-Sierre,46.3056946,7.4773875
735,Bobstadt,49.459607899999995,9.673752288415923
736,Leukerbad,46.3793158,7.6267416
737,Leutwil,47.3095034,8.1731304
738,Neuhausen ob Eck,47.9713008,8.9284465
739,Weggis,47.0322545,8.4346408
740,Metzingen-Neuhausen,48.52738415,9.30426418364488
741,La Forcla,46.5786437,7.1360859
742,Baltrum,53.728207749999996,7.3994820058885615
743,Blonay,46.475731350000004,6.90841012542681
744,Godesburg,50.685183949999995,7.150733699953944
745,Korntal,48.82550125,9.117859493512467
746,Heiligenschwendi,46.750388,7.68459
747,Wilderswil,46.6633947,7.8629948
748,Esens,53.6468107,7.6118499
749,Blonay sur Vevey,,
750,Kapfhüsi,46.8680854,7.7745139
751,Bovenden bei Göttingen,,
752,Emlichheim,52.611968,6.8527435
753,Niederteufen,47.389748,9.3733397
754,Kamakurashi,35.322952,139.554383
755,Territet-Montreux,46.4249698,6.9246438
756,Wildbad,48.73149685,8.523581658790455
757,Montfort,43.3684225,-0.8465779
758,Murnau,47.6778816,11.2011903
759,Lilienthal,53.1414124,8.90677
760,Eppenhain (Taunus),50.167975,8.3924576
761,Hinterzarten,47.9063718,8.103622
762,Santpoort,52.4338437,4.6328181
763,Schmalenbeck,53.6533879,10.2601856
764,Berg (Thurgau),47.579522,9.1681977
765,Angaturama,-21.4810792,-42.41682870826877
766,Chambésy,46.2434402,6.1465109
767,Königstein,50.1818833,8.465271
768,Meran,46.6695547,11.1594185
769,Goldern,46.7393088,8.1981956
770,Wohltorf,53.5167,10.2833
771,Bensberg,50.9662418,7.1614433
772,Beer-Sheva,31.2457442,34.7925181
773,Weston (Conn.),41.2021302,-73.3812743
774,Dallas (Tex.),32.7762719,-96.7968559
775,Charlottesville (Vir.),,
776,Taizé (Saône-et-Loire),46.5128183,4.6771269
777,Illkirch,48.5298611,7.7116218
778,Solignac,45.7549727,1.275543
779,Denver (Colo.),39.7392364,-104.984862
780,Walchensee,47.59327255,11.34637046024519
781,Boolsbury,,
782,Borsdorf,51.3472715,12.540308
783,Riverside (Calif.),33.9824949,-117.374238
784,Bleienbach,47.1856551,7.7561202
785,Walberberg bei Bonn,50.7923257,6.9187589
786,Schmieheim,48.2786884,7.8578952
787,Eringsen,,
788,Vordemwald,47.2766594,7.9009035
789,Ugine,45.7490363,6.4205158
790,Raisdorf,54.2841069,10.2410745
791,Greifensee,47.3662476,8.6786693
792,Gross-Burgwedel,,
793,Cartagena (Spain),37.600417,-0.9868795
794,Ithaca (N.Y.),42.437417499999995,-76.54837235139263
795,"Saint Louis, Mo.",38.6280278,-90.1910154
796,Imshausen,50.9968639,9.8622043
797,Trèves,44.0773,3.3889
798,Utica (N.Y.),43.1009031,-75.2326641
799,"Seattle, Wash.",47.6038321,-122.330062
800,Varanasi,25.3356491,83.0076292
801,Soisy-sur-Seine,48.6502928,2.4490991
802,Latrobe (Pa.),40.317287,-79.3840301
803,Chêne-Bourg,46.1942388,6.1934779
804,Oschwand,47.1407101,7.712462
805,Jettingen,47.598553,7.3727619
806,Kronberg im Taunus,50.1796561,8.5085855
807,Prien a. Chiemsee,47.8541669,12.3455493
808,Breganzona,46.0064653,8.9284461
809,Admont,47.573782,14.4615721
810,Val Camonica,46.0748492,10.3399925
811,Nimwegen,51.8474946,5.8637771
812,Beckenried,46.9664078,8.4744947
813,Hornussen,47.5008542,8.056978167393527
814,Saint-Loup,48.667979,-1.2958685
815,Cologny,46.2163962,6.1817613
816,La Ferrière,45.280845,6.085802096183492
817,Krailling,48.0992621,11.4050891
818,Bad Buchau,48.0641747,9.6106661
819,Kopavogi,64.11077715,-21.8949355835627
820,Lissabon,38.7077507,-9.1365919
821,Tamins,46.8292948,9.4064966
822,Mülheim an der Ruhr,51.4272925,6.8829192
823,Duisdorf,50.7144905,7.0478279
824,Traben-Trarbach,49.9530436,7.1233159
825,Salzgitter-Watenstedt,52.1504733,10.4086767
826,Wiesbaden-Sonnenberg,50.1016836,8.264657
827,Bonn-Beuel,50.7386619,7.1245135
828,Atzenbach,47.71056325,7.8729901033565834
829,"Sunbury, Pa.",40.8619754,-76.7936252
830,Köln-Bayenthal,50.9110582,6.9692379
831,"Syracuse, NY",43.0481221,-76.1474244
832,Duala,4.0429389,9.7062018
833,Winningen,50.3138799,7.5182184
834,"Durham, NC",35.996653,-78.9018053
835,Rivaz,46.4762772,6.7786403
836,Dillenburg-Niederscheld,50.7221447,8.317282924536133
837,Quickborn,54.0111091,9.2114907
838,Beuern,51.1171482,9.4665348
839,Montagnola,45.9829744,8.9184373
840,Füllinsdorf,47.5056654,7.7299597
841,Ulzburg,53.7927083,9.9807595
842,Barbados,13.1500331,-59.5250305
843,Grossaffoltern,47.0667831,7.3608919
844,Altendorf,49.9569909,17.2388792
845,Perroy,47.3987984,3.1590234
846,"Duluth, Minn.",46.7729322,-92.1251218
847,Köln-Deutz,50.9367586,6.9730461
848,Köln-Holweide,50.9762247,7.0411142
849,Berlin-Schöneberg,52.4793491,13.3519181
850,Berlin-Tegel,52.5881913,13.2896968
851,Hamburg-Bergedorf,53.476116,10.2099495
852,Ziegelhausen,49.4216102,8.756893
853,North Easton (Mass.),42.0667665,-71.1036592
854,South Bend (Ind.),41.6833813,-86.2500066
855,Stanford (Calif.),37.426540700000004,-122.17030545534064
856,Schärding,48.4569975,13.4318
857,Trubschachen,46.9228891,7.8466832
858,Glattbrugg,47.4326312,8.5647892
859,Volnsberg,50.8832071,8.0808809
860,"Greencastle, Ind.",39.6444898,-86.8647316
861,Bösingen,48.2387297,8.5583786
862,Reichenau,47.695637250000004,9.059202239614567
863,Collonge-Bellerive,46.2537418,6.2045928
864,Maienfeld,47.0077288,9.5309225
865,Buchschlag,50.0218342,8.6683279
866,Nienburg,52.6487602,9.257810517418042
867,Saas-Fee,46.107342,7.9247055
868,Herzogenbuchsee,47.1881314,7.7057052
869,"New Rochelle, NY",40.9115386,-73.7826363
870,Wilflingen,48.9149339,9.9966648
871,Ulmbach (Hessen),50.3684507,9.421224
872,Einöd (Saarland),49.2717717,7.3183623
873,Batzenhofen,48.430693,10.8145056
874,Danzig,54.42880315,18.79832701217957
875,Brühl-Kierberg,50.8383931,6.8885567
876,"San Francisco, Calif.",37.7792588,-122.4193286
877,Verden (Aller),52.94106755,9.235471627440539
878,Köln-Bocklemünd,50.9754577,6.8504253
879,Eltville am Rhein,50.0275441,8.1189741
880,"Chattanooga, Tenn.",35.0457219,-85.3094883
881,"Knoxville, Tenn.",35.9603948,-83.9210261
882,"Salt Lake City, Utah",40.7596198,-111.886797
883,"Weisskirchen, Taunus",50.1821328,8.5967342
884,Nedlands,-31.9799209,115.8057167
885,Berlin-Steglitz,52.4572569,13.3222865
886,Mainz-Bretzenheim,49.9757922,8.2527665
887,"Anchorage, Alas.",,
888,Solbiate Arno,45.7190562,8.8143443
889,Orselina,46.1778147,8.7956508
890,Neuhausen,54.7745571,20.6037041
891,"Malibu, Calif.",34.035591,-118.689423
892,Ras al-Chaima,25.7386349,55.924922399798014
893,Hannover-Buchholz,52.40873225,9.783515145611005
894,Gummersbach-Niederseßmar,51.0044274,7.5723812
895,"Newark, NJ",40.735657,-74.1723667
896,"Salem, Va.",37.293198,-80.0556773
897,Karlsruhe-Waldstadt,49.0366826,8.4399015
898,Heddernheim,50.159627,8.6466155
899,Banff,51.175076,-115.5720773
900,Decatur (Ga.),30.8736613,-84.5740953
901,Chardonne sur Vevey,,
902,Bannockburn (Ill.),42.1933581,-87.8664579
903,Nordborg,55.0553387,9.7470524
904,Calgary (Kanada),51.0456064,-114.057541
905,Quebec,52.4760892,-71.8258668
906,"Ciudad Universitaria (Mexiko, Stadt)",19.3215473,-99.1849188
907,Kampen (Niederlande),52.5559484,5.9033303
908,Kapstadt,-33.9288301,18.4172197
909,"Santa Monica, Calif.",34.0194704,-118.491227
910,Visperterminen,46.2589888,7.9030118
911,Hamburg-Fuhlsbüttel,53.6331486,9.9881521
912,Kohlscheid,50.8346962,6.0886835
913,Köln-Zollstock,50.9098693,6.941747
914,Berlin-Lichterfelde,52.437293,13.3138645
915,"Akron, Ohio",41.083064,-81.518485
916,Niederaula,50.7961213,9.5891659
917,Villigst,51.4332585,7.5898099
918,Bochum-Weitmar,51.4578419,7.2053509
919,Beerfelden,49.555931799999996,8.952727509818992
920,"Klausdorf, Schwentine",54.3097114,10.2122651
921,Münster-Roxel,51.9462568,7.5264368
922,Kölliken,47.3352673,8.0231804
923,Brixen,46.716413,11.657792
924,Ripon (Wis.),43.8424502,-88.8372972
925,Pasadena (Calif.),34.1476507,-118.144155
926,Burg bei Magdeburg,52.2705632,11.8588198
927,Courbevoie,48.8953328,2.2561602
928,"Monrovia, Calif.",34.1483499,-118.0014517
929,Loccum,52.4546364,9.1462122
930,Katzenelnbogen,50.2676224,7.9768379
931,Kogarah (N.S.W.),-33.968226,151.1354509
932,Ostwald (France),48.5425109,7.7102193
933,Anlhiac,45.3213443,1.1263008
934,Louisville (Ky.),38.2542376,-85.759407
935,Beit Jala,31.7155219,35.1873686
936,Bad Friedrichshall-Kochendorf,49.2187622,9.2114367
937,Hoisington (Kan.),38.5180672,-98.7781394
938,Manurewa,-37.0241501,174.88865968963015
939,Mötzingen,48.5354913,8.7747087
940,Tokio,35.6768601,139.7638947
941,Kolonie Falkenberg,,
942,Adelebsen,51.579484,9.7524477
943,"Waco, Tex.",31.5491899,-97.1474628
944,Stend,60.27281885,5.329244463751676
945,Schachen,50.4103585,9.9254672
946,Baarlo,51.3319545,6.0967255
947,Ettenhausen,47.7090146,12.38657
948,Langwies,46.820556,9.7126357
949,Vallamand-Dessous,46.9249565,7.0349524
950,Vico Morcote,45.9312629,8.9242053
951,Möriken,47.415862,8.1823328
952,Gümligen,46.9345928,7.5110516
953,Drütte,52.152198,10.4471834
954,"Belmont, Mass.",42.3959296,-71.1786655
955,Zermatt,46.0212076,7.749254
956,Soulz-sous-Forêts,48.935951,7.8822757
957,Schiers,46.9689315,9.6900481
958,"Ann Arbor, Mich.",42.2813722,-83.7484616
959,"Cherry Hill, NJ",39.9348351,-75.0307264
960,Ferney,45.3305156,-98.0978733
961,Chexbres,46.4809505,6.7803021
962,Mouton,45.8907237,0.244336
963,Muhen,47.3408342,8.0535781
964,Sitten,46.2311749,7.3588795
965,Nizza,43.7009358,7.2683912
966,"Summit, NJ",40.7182356,-74.3592296
967,Kieselbronn,48.9339465,8.7479626
968,Riedlingen-Bechingen,48.1991886,9.490250096822741
969,Werthenstein,47.0553684,8.1018157
970,Hamburg-Othmarschen,53.5552836,9.8975843
971,"Jamaica, NY",40.7029134,-73.8006429
972,Leoni,45.434788,12.3500446
973,Richigen,46.9182163,7.5822762
974,Herschbach (Oberwesterwald),,
975,Hillesheim,50.2916705,6.6680009
976,Sankt Augustin- Hangelar,50.7591626,7.1664663
977,Dulliken,47.3537179,7.9424681
978,Calcutta,22.5726459,88.3638953
979,Assuan,24.091071,32.897306
980,Holderbank,47.4270885,8.1686653
981,Cressier,46.8986683,7.1417574
982,Lumbwa,-2.6195355,36.1867896
983,Salvador (Bahia),-12.9822499,-38.4812772
984,Dudweiler / Saar,49.276826,7.0356363
985,Breinig,50.7318443,6.2171958
986,Würenlingen,47.5320878,8.2569618
987,"Norwich, Vt.",43.7136654,-72.3081535
988,Reichenbach,50.6200076,12.298936
989,Mainz-Gonsenheim,49.9977389,8.2143081
990,Laurensberg,50.7981965,6.0614291
991,Berlin-Niederschönhausen,52.5858062,13.401397
992,Milano Marittima,44.2774759,12.3481763
993,Nieder Eschbach,50.201765449999996,8.666575693266704
994,Berlin-Friedrichshagen,52.4573763,13.6232934
995,Ftan,46.7951677,10.2488557
996,Damaskus,33.5130695,36.3095814
997,"Lead, SD",44.352207,-103.765198
998,Weiding,49.2642085,12.7627487
999,Bærum,59.9289639,10.499710818578329
1000,Stuttgart-Zuffenhausen,48.8295258,9.16721
1001,Sasbach-Walden,,
1002,Marbach,47.3919868,9.5686092
1003,Altdorf b. Nürnberg,49.3858107,11.3564341
1004,Ennetbürgen,46.9851867,8.4128263
1005,Beer Sheva,31.2457442,34.7925181
1006,Coral Gables (Fla.),25.7331105,-80.2585107
1007,Wellesley (Mass.),42.2964859,-71.2925571
1008,Regent,46.4216712,-102.555719
1009,Hamburg- Groß Flottbek,53.5655862,9.8792333
1010,Rehetobel,47.4266831,9.4804482
1011,"Middletown, Conn.",41.5623178,-72.6509061
1012,Serneus,46.8897289,9.838838
1013,Saarn,51.4039664,6.8761353
1014,Kobe,34.6932379,135.1943764
1015,Pressy-Vandoeuvres,46.2299192,6.2057135
1016,Samedan,46.5332403,9.874586
1017,Stuttgart-Hohenheim,48.7118,9.2113
1018,Efferen,50.8965093,6.8968621
1019,Hyderabad,17.360589,78.4740613
1020,Wittmund-Carolinensiel,53.6916344,7.8028095
1021,L'Isle-sur-la-Sorgue,43.9185354,5.0515385
1022,Steckborn,47.6653429,8.9815246
1023,Waltalingen,47.6219604,8.7790569
1024,Kairp,,
1025,Clarens,43.1628572,0.4147041
1026,Drakensteyn,52.179826750000004,5.22717506339832
1027,Vufflens-le-Château,46.5264596,6.4690909
1028,Sollentuna,59.4293164,17.9500556
1029,Horn,52.653272,5.0735802
1030,Campbeltown,55.4241858,-5.6051005
1031,Küttigkofen,47.150838,7.5156072
1032,Widdersberg,47.3240596,11.3610967
1033,Berleburg,50.670900849999995,9.558169748435553
1034,Auenstein,47.4168206,8.1370602
1035,Hirschberg,50.8501049,15.653749235408073
1036,Emmishofen,47.6470522,9.1550638
1037,Langenfeld (Rheinland),51.1008952,6.9459377
1038,Niederpleis,50.7717333,7.213634
1039,Stuttgart-Untertürkheim,48.7798209,9.2504725
1040,Sinnai,39.3042403,9.2035381
1041,Flims,46.8332439,9.2834557
1042,Leverkusen-Schlebusch,51.0312322,7.0152723
1043,Schruns,47.0802089,9.9197063
1044,Champéry,46.1756791,6.8687665
1045,Unterdürrbach,49.817499999999995,9.91724083240329
1046,KwaZulu-Natal,-28.503833,30.8875009
1047,Flims Waldhaus,46.8257165,9.2888007
1048,San Nazzaro,41.0523895,14.8563559
1049,Gravesano,46.0414667,8.9196174
1050,Rüdesheim-Eibingen,50.020566349999996,7.915493602656994
1051,Saint-Prex,46.4809059,6.4586004
1052,Arbaz,46.273328,7.3834555
1053,Nunningen,47.3939723,7.6197691
1054,Menzingen,47.178291,8.5899339
1055,Germignaga,45.993507,8.7241585
1056,Sent,48.5513314,-1.5845373
1057,"Westport, Conn.",41.1414855,-73.3578955
1058,Escholzmatt-Marbach,46.890431449999994,7.917651101622755
1059,Hohenasperg,48.9109575,9.1389987
1060,Zarten,47.9770172,7.9492262
1061,Pollastra,44.8496505,8.7724754
1062,"Walla Walla, Wash.",46.0667277,-118.339345
1063,Borutta,40.522359,8.743519
1064,Mitaka,35.685227,139.572916
1065,Guingamp,48.5618483,-3.1502007
1066,Weissach im Tal,48.9260551,9.4903478
1067,Brig,46.2845584,8.02942282014046
1068,Slattum,60.0094971,10.92035
1069,Nendeln,47.1973842,9.5430689
1070,Campione d'Italia,45.968081,8.971033
1071,Deersheim,51.9832631,10.7814887
1072,"Louisville, Ky.",38.2542376,-85.759407
1073,"Hollywood, Fla.",26.0112014,-80.1494901
1074,Heilbronn-Böckingen,49.133695,9.1932571
1075,Vabréas,,
1076,Oeiras (Brasilien),-7.0174887,-42.1314478
1077,Point Clare (N.S.W.),,
1078,La Broque,48.4684871,7.211743
1079,"Reno, Nev.",39.5261206,-119.8126581
1080,Sackville,45.8999177,-64.3655256
1081,Niederbronn,48.9510314,7.6421767
1082,Bad Hindelang,47.5099108,10.3698921
1083,Hamburg-Wellingsbüttel,53.641249,10.0827111
1084,Hamburg-Wandsbek,53.6178179,10.127319649512643
1085,Bad Homburg v.d. Höhe,50.2267699,8.6169093
1086,Junkersdorf,50.9317526,6.8551691
1087,Berlin-Grunewald,52.4903556,13.2652322
1088,Wängi,47.496703,8.9533301
1089,Querum,52.2937533,10.5598521
1090,Wyhlen,47.5487995,7.691887
1091,Hamburg-Wohldorf,53.7106757,10.1323857
1092,Frouville,49.1523953,2.1488504
1093,Boulogne-sur-Seine,48.8180748,2.2384571
1094,Oberndorf am Neckar,48.2908613,8.5711222
1095,Titisee,47.8932083,8.146235749072751
1096,Braunschweig-Mascherode,52.2246494,10.5696066
1097,München-Allach,48.1900336,11.4681053
1098,Stuttgart-Degerloch,48.7065159,9.1616187
1099,Köln-Braunsfeld,50.9365109,6.8991826
1100,Lausanne-Ouchy,46.50511745,6.626942593958974
1101,Duisburg-Beeck,51.4773888,6.7342224
1102,München-Solln,48.0799367,11.5269373
1103,Hirsau,48.734346,8.7352364
1104,Dortmund-Wambel,51.5216853,7.5229208
1105,Patiala,30.20927775,76.33972313649818
1106,Ronco,45.6647065,8.1611597
1107,Gebenstorf,47.4819508,8.2408818
1108,"Hastings-on-Hudson, NY",40.9946622,-73.8785922
1109,Hünibach,46.747135,7.6484293
1110,"Cleveland Heights, Ohio",41.5200518,-81.556235
1111,Pfinztal-Wöschbach,48.99694025,8.580887813794064
1112,Oberlin,41.2939386,-82.2173786
1113,Marrakesch,31.6258257,-7.9891608
1114,Saint-Barthélemy-d'Anjou,47.4683081,-0.4932941
1115,Berrien Springs (Mich.),41.9464336,-86.3388965
1116,Nattheim,48.6995114,10.2418583
1117,"Great Barrington, Mass.",42.1939364,-73.362773
1118,Bagdad,33.3061701,44.3872213
1119,"Baton Rouge, La.",30.4494155,-91.1869659
1120,Oberlenningen,48.550635,9.4703358
1121,"Brooklyn, NY",40.6526006,-73.9497211
1122,"Oberlin, Ohio",41.2939386,-82.2173786
1123,Villeneuve,45.0835468,-0.6280356
1124,Forio d'Ischia,40.726881649999996,13.909547430335884
1125,"Chevy Chase, Md.",38.9813699,-77.0849245
1126,Ramat-Gan,32.0686867,34.8246812
1127,Hazerswoude,52.1228111,4.5883485
1128,St. Petersburg (Florida),27.7700475,-82.6359078
1129,Espenschied,50.1123882,7.9042955
1130,Greenwich (Conn.),41.0264862,-73.6284598
1131,Altstädten,47.486197,10.2845713
1132,Porz-Eil,50.8954077,7.078521
1133,Duluth (MIN),46.7729322,-92.1251218
1134,Wittlaer,51.3194386,6.7420578
1135,Bickleigh,50.84274255,-3.502667000910674
1136,Herzogenrath-Kohlscheid,50.8346962,6.0886835
1137,Annweiler,49.2027254,7.9682264
1138,Ebnet,47.9859781,7.9038438
1139,Gödenroth,50.087315,7.4877215
1140,"Nashville, Tenn.",36.1622767,-86.7742984
1141,"Hamden, Conn.",41.3679456,-72.92313173027604
1142,Zell,50.0275681,7.1813233
1143,Les Collons sur Vex,,
1144,Erlabrunn,49.8598717,9.843799
1145,Brüttisellen,47.4242579,8.6307734
1146,Bergshamra,59.3807025,18.0374037
1147,Gutenberg,49.8800305,7.7991667
1148,Folgensbourg,47.5505154,7.4464337
1149,Bissingen,48.7177493,10.6158383
1150,Düsseldorf-Kaiserswerth,51.3014826,6.7355171
1151,Shamsabad (India),22.8451883,76.34545431160329
1152,Dar-es-Salaam,-6.8160837,39.2803583
1153,Witterschlick,50.6924755,7.0241165
1154,Hirschegg,46.7208973,11.4736895
1155,Bradford (NH),43.270206,-71.960449
1156,"Claremont, Calif.",34.0966764,-117.7197785
1157,Waterloo (Canada),43.4652699,-80.5222961
1158,Donegal (Ireland),54.6537924,-8.1102616
1159,Hingham (Mass.),42.2417669,-70.8897676
1160,Berchtesgaden,47.6330221,13.0020051
1161,Madras,44.6334544,-121.129487
1162,Pech,42.7822623,1.6883458
1163,Ittigen,46.9790726,7.4815213
1164,Uitikon,47.3705756,8.4530961
1165,Bietigheim,48.9126152,8.2539859
1166,Bruggen,46.7395593,13.1944672
1167,Elim,64.6173758,-162.2604161
1168,Parpan,46.7596313,9.5598212
1169,Rombach,49.2515048,6.0938369
1170,Cordoba (Argentinien),-31.4166867,-64.1834193
1171,Amherst (Mass.),42.3731948,-72.5198761
1172,Niederwangen,46.9252797,7.3804051
1173,Sils/Segl Maria,46.4291565,9.7637877
1174,Charbonnières,46.3899122,4.8340204
1175,Ben Shemen,31.9522788,34.921944
1176,Uslar-Eschershausen,51.679811,9.6402867
1177,Remscheid-Lennep,51.1907646,7.252905
1178,Havelse,52.4084357,9.613425
1179,"Milwaukee, Wis.",43.0386475,-87.9090751
1180,Nikolausberg,50.7446067,8.7012974
1181,Hamm (Westf),51.6785747,7.807713
1182,Ramat-Shen,,
1183,Kleinkems,47.6862094,7.5235689
1184,Hannover-Döhren,52.3358471,9.7688064
1185,Vilbel-Heilsberg,50.1705878,8.720116
1186,Territet,46.4249698,6.9246438
1187,Kingswear,50.366261550000004,-3.54634164096837
1188,Adelboden,46.4927213,7.5587618
1189,Walenstadtberg,47.1375398,9.2903806
1190,Wilhelmshütte,50.8661951,8.5503146
1191,Tegelen,51.3429314,6.1362198
1192,Immensee,47.0968171,8.4626759
1193,Gersau,46.9923,8.5264727
1194,Burgfelden,48.2412473,8.932808
1195,Ettingen,49.0303712,7.1796783
1196,Kyoto,35.021041,135.7556075
1197,Brunnen,48.6293223,11.3097034
1198,Berg (Sankt Gallen),47.3783496,9.1924314
1199,Alexandria (Vir.),,
1200,Mirpur Khas Sind,25.5262817,69.0110617
1201,Pennsylvania,40.9699889,-77.7278831
1202,Tarabya,41.1385739,29.0530421
1203,"Iowa City, Iowa",41.6683126,-91.57952674093114
1204,Lörrach-Tumringen,47.6269153,7.6539312
1205,Wissen-Schönstein,50.7746363,7.7567874
1206,Ashkelon,31.6644874,34.5730157
1207,Boldern,47.2614662,8.7012823
1208,Windisch,47.4793472,8.2179918
1209,Giglio Porto,42.3571574,10.9224837
1210,Llansá,41.2212153,1.7255003
1211,"Statesboro, Ga.",32.4490141,-81.7832912
1212,"Ithaca, NY",42.4396039,-76.4968019
1213,"Boulder, Colo.",40.0149856,-105.270545
1214,Mürren,46.5594576,7.8929321
1215,Dahlbruch,50.9751452,8.0554578
1216,Trenčianska Teplá,48.9344602,18.1200726
1217,Sede Boqer,,
1218,Tübingen-Lustnau,48.5238439,9.0944493
1219,Dudweiler,49.2773213,7.0343613
1220,Singen (Hohentwiel),47.7617515,8.8348709
1221,Gelsenkirchen-Buer,51.5611041,7.0607256
1222,Schwabach-Wolkersdorf,49.3620291,11.0283533
1223,Yellowstone National Park,44.6200885,-110.56068933143061
1224,"Greenville, SC",34.851354,-82.3984882
1225,Pullach i. Isartal,48.0556122,11.5217455
1226,Aegidienberg,50.6620395,7.303968
1227,Düsseldorf-Urdenbach,51.1574819,6.8830669
1228,Amun-Mut-Chons-Tempel Theben,,
1229,Ofterdingen,48.4200621,9.0308559
1230,Mannheim-Käfertal,49.5014671,8.5038114
1231,Tübingen-Weilheim,48.4915715,9.0332521
1232,Wesseling-Urfeld,50.8070486,7.0253106
1233,Ennepetal-Milspe,51.2994862,7.348566
1234,Newton-le-Willows,53.4530667,-2.6263483
1235,Saint-Romai,46.348255550000005,25.528247151810074
1236,Windsbach,49.2475569,10.827543
1237,Diolly,46.2388525,7.344252
1238,Haltingen,47.6152532,7.6163573
1239,"Austin, Tex.",30.2711286,-97.7436995
1240,Rosny,-42.8718995,147.3573558
1241,Orbyhus,60.2269328,17.7056289
1242,Meggen,47.0470746,8.3733992
1243,Bonstetten,48.4393183,10.706508
1244,Mašhad,36.2974945,59.6059232
1245,Schöller,51.2447236,7.0317059
1246,Saint Blaise,46.0647356,6.0889634
1247,Appleby,31.7162882,-94.6049313
1248,Goldau,47.1819935,24.1335334
1249,Montechiano,,
1250,Küssnacht am Rigi,47.08385,8.4386308
1251,Berowra,-33.6235384,151.1531676
1252,Dubbeldam,51.79327325,4.702386049894336
1253,Village-Neuf,47.6054816,7.5696755
1254,Menlo Park (Cal.),,
1255,Hamilton (N.Y.),43.6307863,-74.4659275
1256,Steinkirchen,53.5642985,9.6006119
1257,Fort Lauderdale (Flor.),,
1258,Bidar,18.02072965,77.24872035766641
1259,Mysore,12.3051828,76.6553609
1260,Limena,45.4743763,11.8449327
1261,Isernhagen,52.4704753,9.8080015
1262,Beuel,50.7386619,7.1245135
1263,Kano (Nigeria),11.8948389,8.5364136
1264,Boston Spa,53.9039164,-1.3485238
1265,Aarhuus,52.08634675,5.6197892812956205
1266,Altmannstein,48.9,11.65
1267,Corrèze,45.342904700000005,1.8176424406120555
1268,Hinterbrühl,48.0801855,16.239042909866875
1269,Breitenbach,48.3657983,7.2930383
1270,"South Hadley, Mass.",42.2591392,-72.5751341
1271,Rancate,45.8705975,8.9678459
1272,Würenlos,47.4421058,8.3618108
1273,Eretria,15.9500319,37.9999668
1274,Hergiswil,46.9840938,8.3104542
1275,Meierskappel,47.1239632,8.4435423
1276,Prairie du Chien (Wis.),43.05194,-91.1409933
1277,Münsingen,46.8739775,7.5631943
1278,Camp Hill,40.2398118,-76.9199742
1279,Landstuhl,49.4143311,7.5722301
1280,Panmunjom,37.9558744,126.6770213
1281,Albeuve,46.5173976,7.0566535
1282,Wachenheim,49.6365854,8.165345
1283,Metzkausen,51.2665938,6.9567701
1284,Kehl am Rhein,48.5744449,7.8065078
1285,Castagnola,42.8396663,12.561232
1286,Berlin-Wilmersdorf,52.4871152,13.3203298
1287,Ibstone,51.6340839,-0.9099001
1288,Brombach,50.9763223,7.2573513
1289,"Lochham, Gräfelfing",48.1313696,11.4333661
1290,Hirschlanden,48.8372219,9.038353
1291,Wurmsham-Pauluszell,48.3649831,12.3065756
1292,Niederdollendorf,50.6947564,7.1787484
1293,Eppenhain,50.167975,8.3924576
1294,Altdorf (Baden-Württemberg),48.5950276,9.2712933
1295,Zimmerwald,46.8804779,7.4704391
1296,Itingen,47.4665362,7.7877841
1297,Rolle,46.4601563,6.3380469
1298,Marbach (Sankt Gallen),47.39268,9.5867061
1299,Blankenhain,50.8604751,11.3418229
1300,Bougy-Villars,46.4787593,6.3545367
1301,Chernex sur Montreux,46.4420987,6.9059653
1302,Nenzing,47.183198,9.6995419
1303,Nusse,53.6574275,10.580393
1304,St. Genis-Sergy,46.27707635,6.00701828871801
1305,San Marino (CA),34.1215947,-118.105739
1306,Athens (Ga.),33.9597677,-83.376398
1307,Montfaucon,48.957,3.42498
1308,Hösel,51.3414011,6.8929255
1309,Delphi,52.0114017,4.35839
1310,Unterdießen,47.9815393,10.8303221
1311,Kastrup,55.6357222,12.6469508
1312,Feichten,47.8205193,12.7014224
1313,Goldiwil,46.7632211,7.6640054
1314,Limburg a. d. Lahn,50.3880781,8.0635614
1315,"White Plains, NY",41.0339862,-73.7629097
1316,Breitbrunn,50.0155654,10.7016732
1317,Saxon,46.1452873,7.1807405
1318,Molitg-les-Bains,42.6524451,2.3880537
1319,Pfaffhausen,47.3658602,8.6232459
1320,Poona (India),18.5213738,73.8545071
1321,Algir,36.7729309,3.0588291
1322,Abtwil,47.1744431,8.3546821
1323,Molare,44.6204339,8.6011696
1324,Milwaukee (Wis.),43.0386475,-87.9090751
1325,Rimpar,49.8565075,9.9571081
1326,Ammerbuch,48.5520727,8.9462829
1327,Herakleion,35.33908,25.1332843
1328,Michigan,43.6211955,-84.6824346
1329,Soglio,44.9962983,8.0785144
1330,Elba,42.7902379,10.340223929577242
1331,Bikfaya (Libanon),33.9221677,35.684352
1332,Pfaffetschlag,48.7069002,13.9023307
1333,Denison (Iowa),42.0177718,-95.3553286
1334,Naġāzī,7.5981262,6.2317518
1335,L'Aigueglia,,
1336,Emmenbrücke,47.077539,8.270942
1337,Gilly VD,46.4575111,6.2969883
1338,Anrath,51.2794758,6.4589721
1339,Bennigsen,52.233050399999996,9.668407454850087
1340,Grundlsee,47.6272662,13.837928
1341,'s Heer Arendskerke,51.4920398,3.8233773
1342,Stocksund,59.3845769,18.0571915
1343,Ahlem,52.3850135,9.6653858
1344,Felton CA,37.0513364,-122.07329
1345,Brezzo di Bedero,45.97769615,8.718691637857134
1346,Hanover (N.H.),,
1347,Buchberg,47.5726201,8.56076
1348,Conches,43.5450088,-0.1695404
1349,San Pietro,46.6022916,11.6105941
1350,Neubeuern,47.7734832,12.1389535
1351,Pöcking,47.9667051,11.2999886
1352,Seefeld,47.3289241,11.1867187
1353,Corbeyrier-sur-Aigle,,
1354,Oberrohrdorf,47.421817,8.316452
1355,Agnuzzo,45.9932302,8.9245373
1356,Kirkwood (Mo.),38.5800713,-90.4069177
1357,Neuershausen,48.0692049,7.7714161
1358,Buir,50.8575056,6.5816338
1359,Rodenkirchen,50.87875,6.981804397809072
1360,"Cincinnati, Ohio",39.1014537,-84.5124602
1361,Hofstetten,48.2589583,8.0677539
1362,Biasca,46.3606274,8.9714023
1363,Alghebo,,
1364,Honnef,50.649923599999994,7.251352223732795
1365,Bauen,46.9353199,8.579653
1366,Istein,47.6584833,7.5396199
1367,Giswil,46.838175,8.1880027
1368,Salzgitterdrütte,,
1369,Braunwald,46.9392639,8.9984978
1370,Kiechlinsbergen,48.1231835,7.6547922
1371,Isorno,46.1986727,8.6301531
1372,Beuron,48.0511727,8.9703207
1373,Sankt Martin,48.3500473,7.2904854
1374,Chestnut Hill (Mass.),42.3306529,-71.1661647
1375,Vellore (India),12.9021849,79.06110398623842
1376,Bregaglia,46.361385850000005,9.635553693464946
1377,Ruhpolding,47.7620099,12.6459934
1378,Oreland (Pa.),40.1184433,-75.1776757
1379,Unterjesingen,48.5267277,8.9796759
1380,Wandhofen/Schwerte,51.4425888,7.5592083
1381,Cabrerolles,43.5445,3.12514
1382,Isola del Giglio,42.353166,10.89642944345152
1383,La Ferté-Gaucher,48.7812807,3.305711
1384,Tatta (Pakistan),33.61219680000001,73.94665188195668
1385,Banara (India),22.560429,77.40233601044558
1386,Brunegg,47.4192416,8.21637
1387,Chiang Mại,18.7882778,98.9858802
1388,"Wellfleet, Mass.",41.9376051,-70.0327996
1389,Borkum,53.58626685,6.691744899630901
1390,Zell im Wiesental,47.7054471,7.8476208
1391,Khairpur,27.5204873,68.7383149
1392,Merton,51.41086985,-0.18809708858824303
1393,Fargo (N.D.),46.877229,-96.789821
1394,Umerkot,25.3655302,69.7401257
1395,Birchington (Kent.),51.3738758,1.3070658
1396,Intragna,45.9941511,8.572928
1397,Ronco sopra Ascona,46.1433367,8.7263426
1398,Liessem,50.0245641,6.4806229
1399,Bad Wiessee,47.7128111,11.7254859
1400,Spencer (Mass.),42.2436316,-71.9934879
1401,Geisweid,50.9136699,8.0095133
1402,Schwalbach-Limesstadt,50.1591194,8.5215614
1403,Zizers,46.9369963,9.5665236
1404,Essen-Borbeck,51.4733106,6.948261
1405,Schondorf am Ammersee,48.0504076,11.0918974
1406,Feldis/Veulden,46.7951075,9.4299104
1407,Calw-Altburg,48.7242948,8.7037409
1408,Banyuls-sur-Mer,42.4794084,3.1275893
1409,"Fort Worth, Tex.",32.753177,-97.3327459
1410,Wilsede,53.1638906,9.9603126
1411,"Chesterfield, New Hampshire",42.8873038,-72.4703661
1412,"Buffalo, NY",42.8867166,-78.8783922
1413,Campello,38.427416,-0.3983685
1414,"Newmarket (Suffolk, England)",52.2443103,0.4065503
1415,Chrást,49.5947469,13.9558223
1416,Marathon (Fla.),24.7137524,-81.0903512
1417,"Jugenheim, Bergstraße",49.7649156,8.6486836
1418,Cureglia,46.0373157,8.9445412
1419,Grosswangen,51.2693891,11.5472415
1420,Friesenhagen,50.9034439,7.8084366
1421,Crans,45.9637,5.19001
1422,Höchenschwand,47.7354379,8.1659943
1423,Boulogne,46.7947224,-1.3210389
1424,Cullman (Alabama),34.1335332,-86.8779268
1425,Pergamon,39.13062255,27.184482062851757
1426,South Norwalk (Conn.),41.0956718,-73.4219246
1427,Sils,41.8098347,2.743055
1428,Niederhofheim (Taunus),50.1243989,8.4790348
1429,Boxford (Mass.),42.6625764,-70.9977456
1430,Gemmingen,49.1566963,8.9840589
1431,Unter-Radlberg,48.2553232,15.6795466
1432,Manhattan (KS),39.1836082,-96.5716694
1433,Lahr,49.9440252,6.2909576
1434,Engelburg,47.4477653,8.7959229
1435,Gelfingen,47.2144081,8.2661787
1436,Bandol,43.1357717,5.7523647
1437,Biogno-Beride,45.997248,8.8371173
1438,Bucks,51.7834994,-0.8946440535649794
1439,Bernau,52.6787254,13.5881114
1440,Pino Torinese,45.039547,7.777125
1441,Schwanden bei Brienz,46.769607300000004,8.054822686813012
1442,London (Ont.),42.9832406,-81.243372
1443,Oberburg,51.41341855,11.10820755977118
1444,Oberhallau,47.7050973,8.4783357
1445,Aetingen,47.1321072,7.5055769
1446,Solln,48.0765906,11.5180779
1447,Hexenagger,48.9210117,11.6839688
1448,"Palm Beach, Fla.",26.6279798,-80.4494174
1449,Zillisheim,47.696435,7.2938793
1450,Le Port-Marly,48.8809876,2.109145
1451,Icking,47.9515105,11.4320346
1452,Tour-de-Peitz,51.7991216,14.4451191
1453,Nazzano,42.229257,12.5976389
1454,Wanne-Eickel,51.5317553,7.1644354
1455,Bochum-Harpen,51.4946273,7.2559012
1456,Hohenkreuz,48.7515629,9.3126459
1457,"Lexington, Mass.",42.4473175,-71.2245003
1458,Blauen,47.4489135,7.51876
1459,Québec,52.4760892,-71.8258668
1460,Heidelberg-Ziegelhausen,49.4216102,8.756893
1461,Rod an der Weil,50.33740485,8.385291962337387
1462,"Urbana, Ill.",40.1117174,-88.207301
1463,Blatten,46.4205806,7.8192935
1464,"Houston, Tex.",29.7589382,-95.3676974
1465,Wichtrach,46.8457306,7.5783419
1466,Sasbachwalden,48.6186096,8.1280222
1467,Kiryat Shmona,33.2074733,35.5707828
1468,Saarhölzbach,49.5150308,6.6053001
1469,"Babson Park, Mass.",42.2970161,-71.2550501
1470,Sankt Goarshausen,50.1548796,7.7160976
1471,Strümp,51.2834884,6.6593272
1472,Lollar-Odenhausen,50.6719246,8.7085853
1473,Grossheppach,48.8194718,9.3867302
1474,Lauf a. d. Pegnitz,49.5118126,11.2813381
1475,"Bethlehem, Pa.",40.6178915,-75.3786521
1476,Buckinghamshire,51.7834994,-0.8946440535649794
1477,Niederlauken,50.343858,8.436099630344684
1478,"Vineyard Grove, Mass.",41.4577423,-70.5573104
1479,Stommeln,51.0196389,6.759747
1480,Berlin-Hermsdorf,52.6174544,13.3075189
1481,Voerde (Niederrhein),51.5975224,6.6811994
1482,Newbury (Vt.),44.0792316,-72.0584234
1483,Curtin (A.C.T.),37.2975585,-76.6189246
1484,Dubuque (Iowa),42.5006243,-90.6647985
1485,Valparaiso (Ind.),41.4672552,-87.0604487
1486,Canton (Ohio),40.7985464,-81.3749508
1487,Tondern,54.9380637,8.8629408
1488,"Dallas, Tex.",32.7762719,-96.7968559
1489,Fahrnau,47.66065695,7.8416292085685075
1490,Kiel-Wik,54.3673909,10.1221333
1491,Saarbrücken-Rockershausen,49.2493756,6.9153372
1492,Vinnhorst,52.4222536,9.7032801
1493,Karlsruhe-Rintheim,49.0154961,8.4407597
1494,"South Bend, Ind.",41.6833813,-86.2500066
1495,"Houghton, Mich.",46.8591287,-88.7774734
1496,Potsdam-Waldstadt,52.3648497,13.1045973
1497,Hamburg-Blankenese,53.5644641,9.8152673
1498,Gstaad,46.4761004,7.2873587
1499,Naxos,37.8240743,15.2694003
1500,Duben,51.8977754,13.8070652
1501,Valbella,46.7457888,9.5541506
1502,Sils im Engadin/Segl,46.4305069,9.7631108
1503,"Montgomery, Ala.",32.3669656,-86.3006485
1504,Oxton,55.7718222,-2.8016495
1505,Port Arthur (Tex.),29.8716577,-93.9332302
1506,Degerloch,48.749597,9.1703452
1507,Goldscheuer,48.508866,7.8253778
1508,Englewood (NJ),40.8929329,-73.9726508
1509,Menerbes,43.8321696,5.206383
1510,Kaiseraugst,47.5399823,7.7230178
1511,Anneberg,57.5391182,12.1106534
1512,"Maynooth, Co. Kildare",53.3830239,-6.5922806
1513,Neunkirchen (Saar),49.34987,7.1841564
1514,"Los Angeles- Bel Air, Calif.",,
1515,"Takoma Park, Md.",38.9778882,-77.0074765
1516,Dekalb (Ill.),41.8903447,-88.7713953
1517,Lucknow (India),26.8381,80.9346001
1518,Cedar Falls (Iowa),42.5361805,-92.447758
1519,Eugene (Ore.),44.0505054,-123.0950506
1520,Grenzach,47.5553231,7.6545614
1521,Kirchen,50.8081255,7.87987
1522,Cavalaire-sur-Mer,43.1722952,6.531917
1523,Arniberg,46.7924923,7.987377
1524,Neuendettelsau,49.2851224,10.7886667
1525,Heerbrugg,47.4109666,9.6271219
1526,Rijnsaterwoude,52.1973079,4.6711374
1527,"Putney, Vt.",42.9751766,-72.5215973
1528,Heiligenberg,48.5378755,7.3909733
1529,Dingden,51.7702601,6.6134154
1530,Stuttgart- Bad Cannstatt,48.8014069,9.2168515
1531,Weesen,47.1346737,9.0973561
1532,Netstal,47.0611321,9.0529651
1533,Sankt Luzisteig,47.0296057,9.5281921
1534,Frutigen,46.5874205,7.6444369
1535,Effretikon,47.4257472,8.6870086
1536,"New Orleans, La.",29.9759983,-90.0782127
1537,Filzbach,47.1204474,9.1296451
1538,Mariapfarr,47.1513091,13.7456747
1539,Hätzingen,46.9612205,9.0376862
1540,Bad Zurzach,47.5866477,8.2940658
1541,Niederurnen,47.1256182,9.0535784
1542,Pazzallo,45.9838461,8.9420101
1543,Scheuren,51.0435928,7.1685576
1544,Ronchi,46.068406,11.435186
1545,Solingen-Wald,51.1835883,7.0415393
1546,Kitzeberg,54.3634795,10.2025927
1547,Hofheim am Taunus,50.09494,8.42285
1548,Mötschwil,47.0495151,7.5686179
1549,Peseux,46.9921,5.36708
1550,Hochberg,48.5604301,14.8926554
1551,"West Allis, Wis.",43.0166806,-88.0070315
1552,Ligolsheim,,
1553,New Hampshire,43.4849133,-71.6553992
1554,Porza,46.0270734,8.9534436
1555,Fürstenau-Settrup,52.4799538,7.6162852
1556,Oberhaching-Deisenhofen,48.0188961,11.5915687
1557,Dakka,23.7544529,90.393336
1558,Stockdorf,48.0926483,11.4045794
1559,Jeddah (Saudi Arabia),21.5504432,39.1742363
1560,Talatuoya (Sri Lanka),7.2523519,80.6756236
1561,Vulpera,46.7862255,10.2836644
1562,Thayngen,47.7470005,8.7061689
1563,Allensbach,47.7168668,9.0687005
1564,Aligarh,27.8761073,78.13581531245276
1565,Sargodha (Pakistan),32.0889657,72.6776943
1566,Kildare,53.1568465,-6.9117199
1567,Winsen (Aller),52.6796244,9.9101449
1568,"Long Beach, Calif.",33.7690164,-118.191604
1569,Mona Island,11.9578379,119.9600489
1570,Jagniątków,50.8220431,15.6171299
1571,"Piscataway, NJ",40.5462553,-74.4660408
1572,Castiel,46.8392828,9.6026311
1573,Bad Brückenau,50.3101036,9.7892824
1574,Burbach-Lützeln,50.721273,8.1034503
1575,Rigi Kaltbad,47.0447063,8.4661769
1576,Uetikon am See,47.269368,8.68316
1577,Bad Sobernheim,49.7843963,7.6520457
1578,Tenbury Wells,52.3085197,-2.5974349
1579,Selfkant-Saeffelen,51.0323797,5.9642877
1580,"San Rafael, Calif.",37.9747795,-122.5316686
1581,Rastbach,48.5229256,15.429181
1582,"Omaha, Neb.",41.2587459,-95.9383758
1583,"Honolulu, Hawaii",21.304547,-157.855676
1584,Schweix,49.1285967,7.510308
1585,Chesières,46.3012904,7.0425766
1586,Petrognano,43.5243407,11.8494969
1587,Freiburg-Ebnet,47.9859781,7.9038438
1588,Niederbipp,47.2684936,7.6933343
1589,"Rochester, NY",43.157285,-77.615214
1590,"Madison, Wis.",43.074761,-89.3837613
1591,Avusy,46.1516784,5.9947436
1592,Tigoni,-1.1296902,36.6845836
1593,Berlin-Friedrichsfelde,52.5029358,13.5205456
1594,Gerlafingen,47.169342,7.572082
1595,Manchester-by-the-Sea,42.577873,-70.7689354
1596,Peucang,-6.9896,108.7656
1597,Seewiesen,47.9733089,11.2343843
1598,Udjung Kulon,,
1599,Loosdrecht,52.202599250000006,5.090562862602446
1600,Westernhausen,49.3423272,9.56064
1601,Linescio,46.3082283,8.5834299
1602,"Logan, Utah",41.7313063,-111.834914
1603,Mtubatuba,-28.415707,32.1884598
1604,Bakkum,52.5657651,4.6547672
1605,Dischmatal,,
1606,Kalejetan,,
1607,Englisch,12.8689837,103.2788408
1608,Iketatjane,,
1609,St. Veit an der Glan,46.7672814,14.3576981
1610,Northcliff,-26.1311111,27.9622222
1611,Peutjang,,
1612,Michelbach,47.76118665,7.114948792265047
1613,Talangama (Sri Lanka),6.88696895,79.94746286778025
1614,Rochester (Mich.),42.680588,-83.1338214
1615,Quillota (Chile),-32.879997,-71.2473555
1616,Belmont (Mass.),42.3959296,-71.1786655
1617,Hoisdorf,53.6530061,10.3186485
1618,Gjettum,59.9072563,10.5283887
1619,Steinhöring,48.0870851,12.0298168
1620,Le Mélèze,48.3203262,-1.1256239
1621,Ravello,40.6496643,14.6122753
1622,Hitzacker,53.1512116,11.0440938
1623,Kirchheim,48.6102516,7.4966532
1624,Feldbrunnen,47.2205376,7.555088
1625,Bernried,48.9187723,12.8840541
1626,Toffen,46.859652,7.491931
1627,Bergisch-Gladbach,50.9929303,7.1277379
1628,Orsingen-Nenzingen-Langenstein,47.842898,8.903073
1629,Thedinghausen,52.9624161,9.0202925
1630,Wegmühle,48.336312,13.093278
1631,Erlenbach a. Main,49.8046171,9.1594708
1632,Wieselburg,48.1298877,15.1376585
1633,Konstein,51.1844943,10.2120436
1634,Ketzin,52.4769264,12.8443972
1635,Otterndorf,53.808132,8.899715
1636,Portola Valley (CA),37.3736298,-122.219047
1637,Bispingen,53.0823032,9.996472
1638,"Atlanta, Ga.",33.7489924,-84.3902644
1639,Wildtal,50.6606823,10.9308435
1640,"Linn Creek, Mo.",38.0376252,-92.7118951
1641,Konolfingen,46.879415,7.6209846
1642,Wackernheim,49.9776489,8.1186556
1643,Rheinbreitbach,50.6185836,7.2291175
1644,Schlossborn-Glashütten,50.1978591,8.391642657713358
1645,Sind,34.2965045,75.3125683
1646,Leinfelden,48.6966965,9.1427508
1647,Marakesch,,
1648,"Myrtle Beach, SC",33.6956461,-78.8900409
1649,Lancs,53.8611743,-2.547115001419335
1650,Sindh,25.6371738,78.1138551
1651,Agathenburg,53.5667,9.53333
1652,Taschkent,41.3123363,69.2787079
1653,Herrsching,47.9984622,11.1703947
1654,Wörrstadt,49.8388822,8.1168059
1655,Datteln (Westfalen),51.651468,7.3385906
1656,Corvallis (Ore.),44.5645659,-123.2620435
1657,Mautern,47.3964055,14.8096563
1658,Narowal City (Pakistan),32.1009752,74.872238
1659,Sulzburg,47.8405127,7.7077606
1660,Werne,51.66268,7.6355052
1661,St. Catharines (Ont.),43.1579812,-79.2441003
1662,Sankt Gabriel,51.421097450000005,6.78755243052642
1663,Fischingen,47.4161825,8.9698021
1664,Reichelsheim (Wetterau),50.3611717,8.8207006
1665,Hongkong,22.350627,114.1849161
1666,Menzingen-Schönbrunn,47.1774026,8.5636915
1667,Flüh,47.4850972,7.4978274
1668,Oberderdingen-Flehingen,49.08354555,8.775743135613425
1669,Vrin,46.6555667,9.0984401
1670,Prad,48.6762885,-3.2981537
1671,Müstair,46.6270915,10.4466197
1672,Disentis/Mustér,46.7041748,8.8549785
1673,Otzberg,49.8261,8.9225
1674,Seltisberg,47.4598282,7.7153815
1675,Rosenlaui,46.6801611,8.1533715
1676,Ebnat-Kappel,47.2635337,9.1233561
1677,Les Breuleux,47.2115671,7.0054836
1678,Gundelfingen-Wildtal,48.0341207,7.8775995
1679,Biel-Benken,47.506771,7.520962
1680,Petit-Réderching,49.0557175,7.3043723
1681,Domat/Ems,46.8351271,9.4506859
1682,Wattenwil,46.7691764,7.5076613
1683,Poschiavo,46.3263595,10.0581675
1684,Odilienberg,48.437458,7.4044908
1685,Assos,39.48894145,26.336369194593825
1686,"Carbondale, Ill.",37.7274692,-89.216655
1687,Birenbach,48.7491387,9.6609218
1688,Taimering,48.9172784,12.3134728
1689,Stolberg (Rhld.),50.7702908,6.2295504
1690,Bourguillon,46.7995366,7.1752652
1691,Eisenbach,47.9624362,8.2710482
1692,Santiago de Chile,-33.4377756,-70.6504502
1693,Icklesham,50.9167642,0.6662584
1694,Husinec,50.1737416,14.3750778
1695,Lütjensee,53.6493291,10.3653139
1696,Geislingen,48.2886289,8.8135495
1697,Zeilhard,49.8449803,8.7904808
1698,Carlsbad (CA),33.1580933,-117.3505966
1699,Arosa,46.7797248,9.6781356
1700,Pasching,48.2576453,14.2044214
1701,San José (Calif.),37.3361663,-121.890591
1702,St. Augustin,50.7752776,7.1895507
1703,Münsterhausen,48.3163285,10.4493891
1704,Rupperswil,47.4027283,8.1274477
1705,Gainesville (Flo.),,
1706,Chillicothe (Ohio),39.3331197,-82.9824019
1707,Bloomington (Ind.),39.1670396,-86.5342881
1708,Donnerskirchen,47.8960626,16.6445815
1709,Boulder (Colo.),40.0149856,-105.270545
1710,Montlingen,47.334485,9.5892207
1711,Duschanbe,38.5762709,68.7863573
1712,Olching,48.2036863,11.3311557
1713,Homburg-Jägersburg,49.3708834,7.3232996
1714,Manama (Bahrain),26.2235041,50.5822436
1715,Gordes,43.9110641,5.2002043
1716,Srinagar,34.0747444,74.8204443
1717,Zernikow,53.092774250000005,13.096834418564121
1718,Saginaw (Mich.),43.3326882,-84.0468403
1719,West Lawn (PA),40.3298147,-75.994381
1720,"Santa Barbara, Calif.",34.4221319,-119.702667
1721,Blansingen,47.6909466,7.5409778
1722,Lanham (Md.),38.965365000000006,-76.84179265424164
1723,Koersel,51.06978945,5.271108346980066
1724,Stallikon,47.3269232,8.4901051
1725,Kleinrinderfeld,49.7002253,9.844491
1726,Aschchabad,37.9404648,58.3823487
1727,Riad,24.638916,46.7160104
1728,Steinenbronn,48.6600109,9.1194586
1729,Windach,48.0674862,11.03506
1730,Offingen,48.4837454,10.3672851
1731,Mülheim (Ruhr),51.4197445,6.8724603
1732,Rausdorf,50.8582943,11.6862712
1733,Kastanienbaum,47.0130792,8.33487
1734,Lügde,51.9088111,9.2715714
1735,Brühl-Rohrhof,49.4120039,8.5439491
1736,Kelkheim,50.1344038,8.4531845
1737,Fes,34.0346534,-5.0161926
1738,Kiew,50.4500336,30.5241361
1739,Lancaster (Pa.),40.08067,-76.2411283
1740,Küttigen,47.4194538,8.0432568
1741,Flaach,47.5754461,8.6060755
1742,Freinsheim,49.5066726,8.2108403
1743,Kirow,58.6035661,49.6666241
1744,Elixhausen,47.8674868,13.0670649
1745,Jumelles,48.9148977,1.2071169
1746,Lennestadt-Elspe,51.1534131,8.046321
1747,Bad Malente,54.1707841,10.5593123
1748,Bosco Luganese (TI),46.0258057,8.9094833
1749,Wangs,44.4066191,-92.9794519
1750,Bethesda (MD),38.9846816,-77.0942447
1751,Breitgen,50.8400127,7.6635824
1752,Jakarta (Indonesia),-6.175247,106.8270488
1753,Alhambra (CA),34.093042,-118.12706
1754,Hamden (CT),22.3196602,114.22310708792551
1755,Heimsheim,48.8058986,8.8619207
1756,Martinsried,48.10882,11.4508007
1757,"Bethany, Conn.",41.617955699999996,-72.72901157245789
1758,Arentoft,,
1759,Haverford (PA.),40.0131672,-75.2943516
1760,Kochel,51.36267,17.95479
1761,Nieste,51.3099456,9.6522229
1762,Lakewood (Col.),40.8590818,-80.5528336
1763,Bahawalpur (Pakistan),29.394644,71.6638747
1764,Neyveli (India),11.535987,79.4824392
1765,Brampton (Canada),43.685832,-79.7599366
1766,Nideggen-Abenden,50.6707456,6.4774566
1767,Bad Ditzenbach,48.5874699,9.703232
1768,Maloja,46.49107205,9.886570429538693
1769,"Amherst, Mass.",42.3731948,-72.5198761
1770,Murnau a. Staffelsee,47.6778816,11.2011903
1771,Zuoz,46.6012885,9.9608039
1772,Bad Elster,50.2811665,12.236949
1773,Tegernau,47.7193912,7.7950265
1774,"Williamsburg, Va.",37.2708788,-76.7074042
1775,Affalterbach,48.9218388,9.3230504
1776,"Tucson, Ariz.",32.2228765,-110.974847
1777,Saunderstown,41.5078795,-71.4245004
1778,Schahmirzād,,
1779,Sankt Niklausen,46.9963351,9.5039846
1780,Carabietta,45.96919275,8.902360178633778
1781,Kew (Surrey),49.1349302,-122.69820285463577
1782,Flüelen,46.9027239,8.6253481
1783,Tharandt,50.9853391,13.5794907
1784,Seegräben,47.3421419,8.7709578
1785,Ambleside,54.431954,-2.9630528
1786,Sagar,23.808307550000002,78.75825398721975
1787,Gondo,46.1958512,8.1399499
1788,Le Solliat,46.6197859,6.2345843
1789,Mahlum,52.0031289,10.168775950988039
1790,Lunz,46.655355,11.9283946
1791,Bucks County,40.3451668,-75.1263909
1792,Matels,42.9395774,2.815852
1793,Saas-Almagell,46.0938913,7.9582333
1794,Badgastein,47.110326,13.145399271531453
1795,Saint-Mamet,42.7821787,0.6011945
1796,Obereschach,48.1058569,8.469754
1797,Abterode,51.209679,9.9374482
1798,Eberstadt,49.1791168,9.3218541
1799,Uffing,47.7144384,11.1506437
1800,Jouy-en-Josas,48.76464,2.1684529
1801,Kiefersfelden,47.6138408,12.188782
1802,Clairefontaine,48.6148255,1.9238899938118954
1803,Weisendorf,49.6232447,10.826895
1804,Vättis,46.9098162,9.4415215
1805,Simla,31.1041526,77.1709729
1806,"Bluffton, Ohio",40.8934459,-83.8917849
1807,Yens,46.518837,6.4180806
1808,Grimentz,46.1802947,7.573834
1809,Brenz,53.3844645,11.6585099
1810,Meisenheim,49.706647,7.6700779
1811,Breitnau,47.9398612,8.0770221
1812,Latsch,46.6173435,10.8595388
1813,Obernberg am Inn,48.3211392,13.3340526
1814,Buch am Ammersee,48.0569145,11.1378601
1815,Erquy,48.6286582,-2.4642309
1816,Derendingen,48.5018486,9.0498594
1817,Bernhards bei Fulda,,
1818,Manubach,50.0313506,7.75971
1819,Sankt Wolfgang,48.2192116,12.1344678
1820,Lippspringe,51.7833,8.81667
1821,Auggen,47.7864318,7.5970495
1822,Sonvico,46.0584469,8.9905315
1823,Cavagnago,46.4132693,8.8817499
1824,Meiringen,46.7285518,8.1870934
1825,Brione,45.6429228,10.1461559
1826,Andernos,44.7476897,-1.0925184
1827,Jenins,47.0013303,9.5578327
1828,Sexten,46.7027433,12.350544
1829,Kneitlingen,52.1745681,10.7616983
1830,Kandersteg,46.4975866,7.6756638
1831,Waldshut,47.6246179,8.2120605
1832,Twann,47.093989,7.1548139
1833,Langensalza,52.1714124,9.6598954
1834,Arolsen,51.3649894,9.0376388
1835,Lostorf,47.3852202,7.9462061
1836,Thônes,45.8819884,6.3241844
1837,New London (Conn.),41.3556187,-72.0997804
1838,Ammerland,53.2077356,8.005405395756515
1839,Valeyres-sous-Rances,46.7528278,6.5249548
1840,Feuerthalen,47.6914771,8.64598
1841,Saint Cloud,48.8437412,2.219344
1842,Sigriswil,46.7164293,7.7160699
1843,Hausen,49.8717319,7.3755998
1844,Freidorf,45.7269422,21.1786328
1845,Jasberg,47.8899676,11.6375893
1846,Fischerhude,53.1181954,9.0586369
1847,Deisenhofen,48.0188961,11.5915687
1848,Hertenstein,47.4867348,8.3114384
1849,Bad Meinberg,51.8982138,8.979128875743978
1850,Riesenbeck,52.2627099,7.6249898
1851,Bécon,48.9028583,2.2747813
1852,Winterhtur,,
1853,Pitsford,52.304464,-0.8928754
1854,Beschling,47.1913412,9.6835017
1855,Erkenschwick,51.6398512,7.2605914
1856,Ebern,50.0943461,10.7950972
1857,Urach,48.0054454,8.2494009
1858,Nahrstedt,52.5789893,11.7091845
1859,Kesswil,47.5931922,9.3174354
1860,Schweiz,46.7985624,8.2319736
1861,Hospental,46.6189452,8.5685985
1862,Zürich-Witikon,47.35831,8.590628
1863,Belforte del Chienti,43.162552,13.245376
1864,Aire-la-Ville,46.1905919,6.0428776
1865,Resina,-10.4699395,-36.4210223
1866,Villars-sur-Ollon,46.2977636,7.055331
1867,Algier,36.7729309,3.0588291
1868,Aubonne,47.0357292,6.3265113
1869,Saint-Eusoge,47.723856,2.9007321
1870,Bad Neuenahr,50.5448624,7.1377303
1871,Brügge,51.2085526,3.226772
1872,Tensfeld,54.0427879,10.3182611
1873,Caillac,44.4897287,1.3533478
1874,Trélex,46.414967,6.2048987
1875,Köyliö,61.1190832,22.3077749
1876,Strengelbach,47.2790303,7.9289955
1877,Marbach (Neckar),48.9436384,9.2643177
1878,Iowa,41.9216734,-93.3122705
1879,Oberägeri,47.1347395,8.6132732
1880,Viaggiu,,
1881,Alyth,56.6225542,-3.2302627
1882,Todtmoos,47.7387447,8.0013624
1883,Terrenoire,45.4322031,4.443867789749669
1884,Hangelar über Siegburg,,
1885,Töbingen,,
1886,Kleinmachnow,52.4064167,13.2236601
1887,Norwich/Norfolk,52.6285576,1.2923954
1888,Assenheim b. Friedberg,,
1889,Buchthalen,47.6968583,8.6556984
1890,Dettinghofen ob Griessen,,
1891,Lindenberg (Allgäu),47.6015641,9.8863905
1892,Weiperfelden,50.41866,8.5589431
1893,Königstein (Taunus),50.178152,8.4685883
1894,Wyk auf Föhr,54.6892888,8.5561518
1895,Windecken,50.2223837,8.8792511
1896,Oberkirch (Ortenaukreis),48.5308586,8.078657
1897,Sersheim,48.9606351,9.015577
1898,Goslar am Harz,51.97247625,10.223398451955747
1899,Haste,52.3798,9.39202
1900,Rödermark,49.9798913,8.8088274
1901,Oberhofen,49.0153534,7.9210644
1902,Friedrichstadt,54.3760004,9.0897716
1903,Zwergen,51.4816539,9.298378
1904,Bad Homburg vor der Höhe,50.2267699,8.6169093
1905,Englfing,48.7730903,13.1730044
1906,Tegernsee,47.7099191,11.7543337
1907,Gelsenkrichen,,
1908,Köthen,51.751033,11.973698
1909,Landsberg am Lech,48.0497474,10.8768728
1910,Ortenberg (Hessen),50.35836,9.08399
1911,Friedewalde (Minden),52.3537049,8.8519002
1912,Oberhambach,49.6862306,7.1618243
1913,Bremen-Vegesack,53.1698168,8.629978
1914,Hagen-Hohenlimburg,51.3682601,7.5533711
1915,Weilburg-Waldhausen,50.5002623,8.2506302
1916,Trautheim,49.8326608,8.6902447
1917,Hohenfeld,46.641364,14.2030614
1918,Appen,53.6601647,9.7415872
1919,Kilchberg (Tübingen),48.4896208,9.0169038
1920,Champex,46.0305776,7.1168165
1921,Marienburg,54.0358356,19.0368496
1922,Kempten (Allgäu),47.7267063,10.3168835
1923,Lavaux,47.2419452,4.0725213
1924,Wiederitzsch,51.3941234,12.374251
1925,East Stroudsburg (Pa.),40.9995386,-75.1812913
1926,Boinville,48.2079613,1.7767938
1927,Gastein,47.9278638,12.980358
1928,Göggingen,48.8501077,9.914893
1929,Niedersalbach (Saar),49.3349407,6.9107799
1930,Yellow Springs (Ohio),39.8045432,-83.8925234
1931,Todtmoos-Rütte,47.7612414,8.0131441
1932,Reiden,47.2460194,7.9730383
1933,Bellerive,38.71144,-90.3140032
1934,Tjamsweer,53.3218846,6.834749
1935,Chardonney-sur-Morges,,
1936,Dürnten,47.2778545,8.842203
1937,Asnières-sur-Oise,49.1339089,2.3541273
1938,Hage,53.6033933,7.2850814
1939,Corsier-sur-Vevey,46.4705779,6.8436858
1940,Winznau,47.3657368,7.9306091
1941,Dornstetten,48.4663553,8.5012993
1942,Fehraltdorf,47.38752555,8.753075559335056
1943,Vauseyon,46.989667999999995,6.912938381515444
1944,Vers l'église,46.353709,7.1340583
1945,Kappelen,47.617974,7.4384263
1946,Effingen,47.493355050000005,8.112710499141894
1947,Hellerup,55.7336657,12.5655408
1948,"Trenton, NJ",40.2203074,-74.7659
1949,Rickenbach,47.6209218,7.9788595
1950,Brügg,47.126608,7.277114
1951,Ofenpass,46.6397682,10.2921604
1952,Balestrand,61.2096194,6.5360834
1953,Detmold-Hiddesen,51.9255366,8.8432252
1954,Mühledorf,46.8288719,7.5385748
1955,Gryon,46.2746628,7.063671
1956,Saint-Émilion,44.8931452,-0.1560662
1957,Pelacoy,44.5598519,1.4737839
1958,Angeac-Champagne,45.6085438,-0.2958495
1959,Bettingen,49.1259566,6.8176712
1960,Höchst,50.099466,8.5452563
1961,Oberuzwil,47.4299725,9.1224313
1962,Stuttgart-Obertürkheim,48.7617575,9.2681173
1963,Berlin-Charlottenburg,52.5043157,13.3026447
1964,Obervellach,46.932825,13.2019817
1965,Berlin-Schmargendorf,52.4789022,13.2929962
1966,Bay Village (Ohio),41.484996,-81.9208434
1967,Lakewood (Ohio),41.4819932,-81.7981908
1968,Bad Aussee,47.6094985,13.7835784
1969,Stendal-Wahrburg,52.5899365,11.8243114
1970,Königsbrück,51.2637467,13.9028337
1971,Berlin-Wannsee,52.421199,13.1800603
1972,Murg,48.6977936,8.3502273
1973,Berlin-Halensee,52.4995482,13.2849417
1974,Mulda,51.5671651,12.5797953
1975,Colombey-les-deux-Eglises,48.2230053,4.8873124
1976,Belfaux (Fribourg),46.8216259,7.1068684
1977,Charmes-sur-Rhône,44.8621,4.83424
1978,Morphou,35.1993042,32.9928829
1979,Cernier,47.0768872,6.893812942278821
1980,Mühldorf a. Inn,48.2405007,12.5250991
1981,Reinsdorf,50.6994521,12.5587255
1982,Blomfield,42.5199056,-83.49476714639664
1983,Löffingen,47.8839004,8.3446627
1984,Reichelsheim-Beerfurth,49.7206461,8.8675197
1985,"Stowe, Vt.",44.4643768,-72.6856197
1986,Westerham,51.25681715,0.07303181295111258
1987,Salouf,46.6243725,9.5753208
1988,Beaucourt,47.4851387,6.9256448
1989,Jungbunzlau,50.4116187,14.9031301
1990,Dolomieu,45.6135424,5.5012061
1991,Andolsheim,48.0635889,7.4181601
1992,Saint-Jean-Cap-Ferrat,43.6899651,7.3327399
1993,"Miami, Fla.",25.7741728,-80.19362
1994,Tschlin,46.8692093,10.4252588
1995,"Richmond, Va.",37.5385087,-77.43428
1996,Bottens,46.6169088,6.6607269
1997,Pöhl,50.5600858,12.2110131
1998,Fehraltorf,47.3873705,8.7520123
1999,Morlanwelz,50.4550743,4.2425425
2000,Bäch,47.1117053,7.8290001
2001,Waltenheim-sur-Zorn,48.7475572,7.6283294
2002,Ferenbalm,46.9488327,7.2109008
2003,Johnstown (N.Y.),43.0068689,-74.3676437
2004,Dingelstädt,51.312112600000006,10.311077257458898
2005,Muzzano,45.560762,7.988919
2006,Grellingen,47.4411563,7.5876358
2007,Brackwede,51.9875236,8.5162917
2008,Egestorf,53.1933568,10.0654401
2009,Bariloche,-41.1334421,-71.3098425
2010,Oberrod bei Königstein i.T.,,
2011,Beatenberg,46.6932513,7.783279
2012,Ramstedt,54.4,9.16667
2013,Roslyn Heights,40.7887117,-73.6473511
2014,Monte-Carlo,43.7402961,7.426559
2015,Wartensee,47.1160661,8.1725294
2016,Bassenheim,50.360286,7.4558325
2017,Velden,49.6135225,11.5109171
2018,Gmund,47.7504331,11.7385694
2019,Enzweihingen,48.9174361,8.9838192
2020,Altenroxel,51.9374095,7.5741086
2021,Fallingbostel,52.848558,9.649743222858435
2022,Oberlin (Ohio),41.2939386,-82.2173786
2023,Sochaux,47.5138641,6.8305344
2024,Münchenbuchsee,47.0213315,7.4519196
2025,Trostberg,48.0321101,12.5654359
2026,Zernez,46.6979839,10.0943311
2027,Windsor (Mass.),42.5128826,-73.0588543
2028,Cerisiers,48.1342328,3.4832297
2029,Laufenburg,47.5671976,8.0599414
2030,Zwettl-Niederösterreich- Marbach am Walde,48.5476167,15.0870955
2031,Aïre,46.1990706,6.1019577
2032,Ägina,53.0762753,8.8131761
2033,Mühlberg/Elbe,51.4344274,13.2172472
2034,Partenkirchen,47.4941402,11.1121139
2035,Köln-Klettenberg,50.8949742,6.9176561
2036,Matzingen,47.5199826,8.934077
2037,Wolhusen,47.0580138,8.0725617
2038,Birmensdorf,47.3538481,8.4382157
2039,Homburg (Saarland),49.3181673,7.3340336
2040,Rossbrunn (Waldbüttelbrunn),49.7952079,9.7573438
2041,Stockstadt am Rhein,49.8063487,8.4602546
2042,Geiselgasteig,48.0626315,11.5479446
2043,Aschendorf,53.0508949,7.331969
2044,Minden (Westfalen),52.27436505,8.892230094673332
2045,Toledo (Ohio),41.6529143,-83.5378173
2046,State College (Penn.),40.8025835,-77.85593833184565
2047,Wuppertal-Wichlinghausen,51.289404,7.2036187
2048,Stelle (Harburg),53.3828216,10.1156284
2049,Gföhl,48.516682,15.4905293
2050,Lachendorf,52.6218894,10.246361
2051,Carona TI,45.9574555,8.935792
2052,Fischbach,49.4542256,7.9136812
2053,Raspach,,
2054,Werste,52.2155884,8.7809216
2055,Grafrath,48.1214803,11.1616108
2056,Walkringen,46.9474375,7.6204553
2057,Baden (Morbihan),47.6199988,-2.9184744
2058,Fionnay,46.032922,7.3076779
2059,Celerina/Schlarigna,46.5132296,9.8586248
2060,Nanteau-sur-Essonne,48.314727,2.4190431
2061,Caux,43.509654,3.3635759
2062,Obergrainau,47.4719506,11.025384
2063,Saint-Légier-La Chiésaz,46.4722777,6.8759701
2064,Marin-Epagnier,47.0091238,6.9999328
2065,Uerikon,47.2350588,8.7573767
2066,Carlsberg,49.504022,8.0417454
2067,Mudau,49.5330014,9.203843
2068,Gerzensee,46.8380937,7.5431319
2069,Villigen,47.5262684,8.2147282
2070,Altmittweida,50.9677492,12.9570254
2071,Monte Carlo,43.7402961,7.426559
2072,"Morris, Conn.",38.664918,-96.489581
2073,"Ostheim, Oberelsass",48.1595832,7.3709304
2074,Stuttgart-Bad Cannstatt,48.8014069,9.2168515
2075,Wiedelsheim,,
2076,Lauscha,50.4750346,11.1610862
2077,Falkenstein,50.4773298,12.3691588
2078,Gerolsheim,49.5485287,8.2647113
2079,Attiswil b. Oberbipp,,
2080,Viroflay (France),48.7995951,2.1730571
2081,Banknock (Schottland),55.9898223,-3.9553784
2082,Langenbrettach,49.21091365,9.39741694892106
2083,Bonn-Lengsdorf,50.717677,7.0704371
2084,Bruse,53.800396,-7.0224423
2085,Bolligen,46.9755611,7.4983298
2086,Münstereifel,50.5545674,6.7636511
2087,Sankt Anton,47.7163311,10.311281268771696
2088,Saint-Jean-Pied-de-Port,43.1629528,-1.2380528
2089,Schleswig-Busdorf,54.4920509,9.5501662
2090,Saint Jean-de-Luz,43.387219,-1.6636947
2091,Flen,59.0567823,16.5893
2092,Grafing b. München,48.0453808,11.966071
2093,Michelau,49.8966506,6.0922184
2094,Melide,42.9145741,-8.0136139
2095,Mauer,49.3393776,8.7998674
2096,Bad Eilsen,52.240705,9.0997685
2097,Vrestorf,53.292678,10.4091998
2098,Winterhutr,,
2099,Garmisch-Partenkirchen,47.4923741,11.0962815
2100,Rumisberg,47.263451,7.6412018
2101,Lengnau,47.521079,8.3301378
2102,Frauenkirch,46.768961,9.8003567
2103,Dürrenroth,47.0902206,7.7895896
2104,Vaglio,46.0608486,8.9565552
2105,Scuol,46.7976371,10.2996234
2106,Ingelfingen,49.3014449,9.6513353
2107,Aglasterhausen,49.3555418,8.9888513
2108,Wollbach,50.3657224,10.2232829
2109,"Pasadena, Calif.",34.1476507,-118.144155
2110,Zirl,47.2733773,11.2422348
2111,Le Paraclet,49.8244042,2.3907386
2112,Baarn (Holland),52.2002549,5.269143393313942
2113,Altaussee,47.6398954,13.7640614
2114,Cavigliano,46.184668,8.7190661
2115,Nuits-Saint-Georges,47.1367598,4.9489061
2116,Vernou-en-Sologne,47.5004721,1.6806699
2117,Düferoth,50.729724,7.2503104
2118,Wolfenschiessen,46.9080603,8.3954757
2119,Elbingerode (Harz),51.7728269,10.7876364
2120,Wistow,52.4144272,-0.12147361346072597
2121,Glonn,47.9878929,11.8656334
2122,Zabór,51.9510931,15.7143816
2123,Gunsbach,48.0466071,7.1751197
2124,Positano,40.6286581,14.4854955
2125,Serrara Fontana - Sant'Angelo,40.6993209,13.8929924
2126,Kennelalp,,
2127,Großglockner,47.0745464,12.6938826
2128,Flüeli-Ranft,46.8710319,8.2693067
2129,Arnbach,48.8611747,8.5655656
2130,Douarnenz,,
2131,Söllingen,52.0910397,10.9264304
2132,Canitz,51.3132659,13.220989
2133,Gündringen,48.5156672,8.7092699
2134,Balgach,47.4068832,9.6062727
2135,Wallenscheid,,
2136,Hagen-Wersabe,53.3270741,8.5331359
2137,Cerisy-la-Salle,49.0257994,-1.2837743
2138,Hessenwinkel,52.423057,13.7228907
2139,Schluchsee,47.8185928,8.177035
2140,Bokenäs,58.2931176,11.567949
2141,Berge,40.8577139,-0.4271096
2142,Pisek,49.3089887,14.147769
2143,Driburg,52.342712,8.4382725
2144,Nyiregyhaza,47.9557802,21.7167982
2145,Barmen,51.2716035,7.2003449
2146,Brandenburg/Havel,52.9819251,13.331795
2147,Weyer,48.8550847,7.1591518
2148,Rigi Klösterli,47.0426107,8.4872653
2149,Idar-Oberstein,49.7107134,7.3136563
2150,Oeschgen,47.5191409,8.0170821
2151,"Bala Cynwyd, Pa.",40.0076125,-75.2340695
2152,Hachborn,50.7199014,8.790693
2153,Leersum,52.0102642,5.4332757
2154,Urtenen-Schönbühl,47.0271385,7.5015562
2155,Russikon,47.394837,8.776585
2156,Kleinberghofen,48.8552603,11.9469846
2157,Naumburg (Saale),51.1525648,11.8099186
2158,Lüen,46.8331974,9.6124596
2159,Viipuri,60.709217,28.744051
2160,Masans,46.8712369,9.5354146
2161,"Columbia, Mo.",38.951883,-92.3337366
2162,Prien,47.8541669,12.3455493
2163,New York- Flushing,40.7654301,-73.8174291
2164,Talbiyeh,31.7708162,35.2176794
2165,Maria Laach,48.3035403,15.3437723
2166,Renan,47.1262327,6.9267658
2167,Schinznach-Dorf,47.4467994,8.1422836
2168,"Ridgewood, NJ",40.9796683,-74.1194403
2169,Igls,47.2310263,11.4079216
2170,Villefranche,43.4244499,0.7280492
2171,Faoug,46.9057923,7.0740011
2172,La Tène,47.016351549999996,7.0214191591728525
2173,Peney,46.8026753,6.561092
2174,Nienburg/Weser,52.6487602,9.257810517418042
2175,Schloss Berg,47.970027099999996,11.351418409030304
2176,Lonsee,48.5432227,9.9167965
2177,Amonines,50.26756195,5.56261629418368
2178,Maladers,46.836285,9.5603995
2179,Scharans,46.7181233,9.4597448
2180,Sevelen,47.1206239,9.486921
2181,Secklendorf,53.1086693,10.5991378
2182,Peitaiho Beach,,
2183,Rieden bei Murnau,,
2184,Schmilau,53.6637189,10.7571845
2185,Wettswil am Albis,47.3390834,8.4734523
2186,Comburg,49.09998845,9.750058898531101
2187,Aach,49.7894542,6.5906612
2188,Mitlödi,47.0114661,9.079913
2189,Wangen (Allgäu),47.6891753,9.8305857
2190,Bolsterlang,47.4661646,10.234344
2191,Hartford (Conn.),41.764582,-72.6908547
2192,Grosshöchststetten,,
2193,Leimiswil (Bern),47.1500504,7.7638263
2194,Il Fuorn,46.6646919,10.2109187
2195,Preda,46.5904281,9.7739244
2196,Taunus,50.27433045,8.144506802545912
2197,Abevude,,
2198,Velp,51.9958671,5.9751252
2199,Norderney,53.71238565,7.234020453591892
2200,Adelheide,53.01088,8.6076801
2201,Millstatt am See,46.8051293,13.5714926
2202,Douvrain-Baudour,50.4715793,3.8400187
2203,Reichenhall,47.7169589,12.8629459
2204,Pacific Palisades (Los Angeles),34.0480643,-118.5264706
2205,Puy de Dome,45.7715343,3.0839934206717934
2206,Bogis-Bossey,46.3515732,6.1648147
2207,Ehemen,,
2208,Mellilä,60.7789628,22.9254638
2209,Leysin-Village,46.3392841,7.0060422
2210,Halle-Wittenberg,51.4967152,11.9612634
2211,Stadtfeld über Wunstorf,,
2212,Scheidegg,47.5833051,9.8499989
2213,Regensberg,47.4827643,8.4374038
2214,"Palo Alto, Calif.",37.4443293,-122.1598465
2215,Sankt Gallen-Sankt Fiden,47.4337969,9.3914918
2216,Landau-Queichheim,49.1959521,8.1358948
2217,Grimsel,47.5638212,7.5843369
2218,Longirod,46.4943826,6.2581282
2219,"Elkhart, Ind.",41.6012796,-85.8590603
2220,Gardone Riviera,45.6187853,10.5591005
2221,Dortmund-Husen,51.5595222,7.5993642
2222,[S.1.],48.3538255,12.266638560459631
2223,Samnaun,46.9442417,10.3600844
2224,Berlin-Friedenau,52.4707164,13.3415003
2225,Einigen,46.718206,7.6309692
2226,Niedererlinsbach,47.3975522,8.0083582
2227,Dielsdorf,47.4810371,8.4543245
2228,Soisy-Sur-Seine,48.6502928,2.4490991
2229,Devon,50.724140500000004,-3.6607788161410735
2230,Holzhausen-Ambach,47.8674587,11.33568
2231,Steinegg,46.4858946,11.4552752
2232,Castel del Bosco,43.6671591,10.7049977
2233,Terme di Stabio,45.8513714,8.9423437
2234,Montrésor,47.1566605,1.2016534
2235,Churwalden,46.7784526,9.5429675
2236,Givisiez,46.8145053,7.1295693
2237,Ehrwald,47.3986534,10.9205046
2238,Seeg,47.6535725,10.6069443
2239,Rochetoirin,45.5814,5.41905
2240,Werne an der Lippe,,
2241,Eisenärzt,47.798074,12.6396406
2242,Les Baux-de-Provence,43.7436458,4.7950342
2243,La Suze-sur-Sarthe,47.8895538,0.0275915
2244,Villeneuve-sur-Yonne,48.0820102,3.2942751
2245,Beauvallon,45.5898174,4.692956589100664
2246,Ottenheim,48.1765543,15.9781689
2247,Glücksburg,54.84544485,9.562033402693672
2248,Aschach an der Donau,48.3620058,14.0191063
2249,Wotersen,53.5429376,10.600631
2250,Le Luart,48.069183,0.5858924
2251,Caslano,45.9708722,8.8836544
2252,Saint-Léger-Vauban,47.3857699,4.0476536
2253,Koločep,,
2254,Mitternier,,
2255,Schlosshotel Bühlerhöhe,48.674754899999996,8.228654952317704
2256,Prades,42.6181232,2.4230925
2257,Aidam,12.0533528,27.9338158
2258,Areuse,,
2259,Guttannen,46.655228,8.2904509
2260,Unkel,50.5996127,7.2157397
2261,Dozwil,47.5759385,9.3190975
2262,Felben,47.579124,8.943842
2263,Oberrüti,47.166912,8.3954207
2264,Buschdorf bei Bonn,50.7600013,7.050875
2265,Tremezzo,,
2266,Solesmes,50.1857534,3.4975923
2267,Poggenhagen,52.4666518,9.4546908
2268,Bubikon,47.2682923,8.8191613
2269,Gaienhofen,47.6821346,8.9818583
2270,Geisenhausen,48.4733985,12.2575827
2271,Schwendi,48.1756438,9.9784952
2272,Medingen,53.0911082,10.5605294
2273,Poing über München,,
2274,Unterwasser,47.197779,9.3089893
2275,La Prie,46.3622041,4.0534186
2276,"Tabor, SD",42.9486088,-97.658954
2277,Brienz,46.7560001,8.0303006
2278,Melchthal,51.3871348,12.3879756
2279,Kerns,45.5267633,-122.6445491
2280,Neuenkirch,47.1002397,8.2029897
2281,Ebikon,47.0812067,8.338521
2282,Fahr,49.8762298,10.1674732
2283,Eschlikon,47.4626951,8.957156
2284,Belfaux,46.8216259,7.1068684
2285,Zuid-Schalkwjik,,
2286,Essen-Werden,51.3865008,6.9977869
2287,Fischen a. Ammersee,47.9375841,11.130263382451048
2288,Vennes,47.1538287,6.5465436
2289,Stammheim,48.8497976,9.1573049
2290,Novaggio,46.0108273,8.8558506
2291,Flushing,40.7654301,-73.8174291
2292,Oppenheim,49.8527604,8.3548557
2293,Bad Salzhausen,50.4158016,8.9848348
2294,Treysa,50.9122268,9.1894933
2295,Dachrieden,51.2650857,10.4496993
2296,Rossleben,51.2973072,11.4327733
2297,Augsburg-Haunstetten,48.3086173,10.9067555
2298,Schäftlarn,,
2299,Maugersbury,51.917785699999996,-1.7088578155289018
2300,Visp,46.11758005,7.866476544533072
2301,Aftersteg,47.8431922,7.9250039
2302,Affoltern (Albis),47.2782467,8.4521518
2303,Pontresina,46.489993,9.9042965
2304,Tejuan,45.7334422,5.1867117
2305,Creglingen,49.4701503,10.0325388
2306,Gontenschwil,47.2724829,8.1452923
2307,Kronbühl,47.4572269,9.395138
2308,Vigens,44.2068415,15.206509828713683
2309,Neuville-sur-Oise,49.0135534,2.0623676
2310,Unterehrendingen,47.5037138,8.3470583
2311,Chiasso,,
2312,Frauenthal,47.2138591,8.4234437
2313,Neue Welt/Münchenstein,47.5288324,7.6146617
2314,Lungern,46.7857297,8.1607283
2315,Sorrent,40.624906,14.374836
2316,Rohr,48.6961101,7.5470504
2317,Cully,49.249965700000004,-0.5241720023546639
2318,Stuvsta,59.2542042,17.9967712
2319,Sisikon,46.949336,8.6211018
2320,Walchwil,47.1005277,8.5147778
2321,Bodenheim,49.9296093,8.3083998
2322,Lautertal (Odenwald)- Reichenbach,49.7123967,8.6925279
2323,Italien,42.6384261,12.674297
2324,Burgund,47.27808725,4.222486304306048
2325,Tirol,47.223193,11.5261028
2326,Unteruhldingen,47.7219137,9.2319644
2327,Kāzarūn,,
2328,Wildbad (Schwarzwald),48.750359,8.5357412
2329,Montricher,46.6001762,6.375822
2330,Mauensee,47.1684849,8.0670726
2331,Villeneuve (Vaud),46.3965712,6.9248129
2332,Bebenhausen,48.5610315,9.0591401
2333,Bernhausen,48.6778282,9.2172571
2334,Buffalo (N.Y.),42.8867166,-78.8783922
2335,Capri,40.5488429,14.228370814497762
2336,Sillian,46.7472874,12.4180291
2337,Waldsee,47.9209556,9.7542772
2338,Sülze,51.0262266,7.2729922
2339,Zimming,49.1240187,6.5874406
2340,Bad Kreuznach- Bosenheim,49.8439782,7.9140758
2341,Wasserburg,48.0030238,7.1603062
2342,Seeheim,49.7699405,8.6429463
2343,Weiden (Oberpfalz),49.6752749,12.1631636
2344,Oberitalien,,
2345,Ober-Ursel,50.2005518,8.580452
2346,Schloss Berg (Thurgau),47.578702899999996,9.161016811309668
2347,Baden-Württemberg,48.53775,9.041169
2348,"Bala-Cynwyd, Pa.",40.0076125,-75.2340695
2349,Anacapri,40.555713,14.2136104
2350,Bebek,37.5326,38.258884
2351,Gurzelen,46.7793311,7.531651
2352,Etzelkofen,47.0850392,7.4785267
2353,Hedingen,47.2984412,8.4489755
2354,Laubenheim,49.9185504,7.896673
2355,Pinchat,47.4193937,0.8216101
2356,Riedegg bei Thun,,
2357,Holzen,51.934009,9.6663388
2358,Scheyern,48.5020343,11.4555839
2359,Mainz-Kastel,50.0083449,8.2844378
2360,"Davidson, NC",35.7902384,-80.2115053
2361,Ihrhove,53.1696945,7.4550939
2362,Räckelwitz-Schmeckwitz,51.2575592,14.2012992
2363,Sindelsdorf,47.7242348,11.3329657
2364,Grillat,43.8206602,0.5971896
2365,Atzbach,48.0848267,13.7023591
2366,Sarmenstorf,47.3099209,8.2485603
2367,Avers,46.44462285,9.532904854002343
2368,Uttwil,47.5835512,9.3403851
2369,Attinghausen,46.8617183,8.6288119
2370,Posieux,46.7643272,7.09769
2371,Magadino,46.1474272,8.8559472
2372,Much Hadham,51.846576049999996,0.07083009082302036
2373,Laasphe (Westfalen),50.929621,8.4052493
2374,Lugaggia,46.0624046,8.9729427
2375,Killwangen,47.4315553,8.3518766
2376,Friedrichshof,53.70594,16.76853
2377,Balerno,55.8839143,-3.3387606
2378,Maria Rickenbach,46.9277169,8.4276322
2379,Lamone,46.044713,8.9325447
2380,Unterwellenborn,50.6585941,11.442003
2381,Oña,42.7343909,-3.413458
2382,Uccle,50.8035441,4.3338445
2383,Onaga (Kan.),39.488885,-96.169999
2384,Plaisance-du-Gers,43.6063824,0.0489549
2385,Settignano,43.7829916,11.3208169
2386,Hallau,47.6965281,8.4578613
2387,Saint-Lary,43.7237873,0.5000984
2388,Mammern,47.6461848,8.9157018
2389,Neuhaus am Schliersee,47.6987276,11.894330093126381
2390,Groussay,48.6518616,1.8229933
2391,Beaulieu-sur-Mer,43.7088,7.33375
2392,Courtepin,46.8660381,7.1228659
2393,Eselheide,,
2394,Lennoxville,45.3661982,-71.8564428
2395,Concordia (Kansas),39.571543,-97.661141
2396,Saint Avril,48.4173452,5.1306213
2397,Scarsdale (N.Y.),40.9880495,-73.7974133
2398,Neustadt (Holstein),54.1039427,10.8082797
2399,Landau in der Pfalz,49.1982825,8.1123441
2400,Heustrich,46.6310858,7.6882206
2401,Oman,21.0000287,57.0036901
2402,Davos Wolfgang,46.8318035,9.8548771
2403,Nidelbad,47.3068138,8.5491203
2404,Schönholzerswilen,47.5165928,9.1392258
2405,Telemark,59.39626765,8.66266000194867
2406,Schmargendorf,52.4789022,13.2929962
2407,Staðarbakka,,
2408,Reykjavik,64.24450355,-21.769263572151285
2409,Forte dei Marmi,43.9595891,10.1699392
2410,Wien-Josefstadt,48.2108519,16.347359861911986
2411,Othmarschen,53.5550626,9.8878602
2412,Kristiania,59.9133301,10.7389701
2413,Asbach-Limbach,50.6846028,7.4449041
2414,Hamburg-Rahlstedt,53.604959,10.154598
2415,Blankenese,53.5575,9.80306
2416,Bad Doberan- Heiligendamm,54.1423664,11.842199
2417,Seewalchen am Attersee,47.9539201,13.5866842
2418,Bichain,48.3435133,3.0545165
2419,Hagenau,48.8172236,7.7885978
2420,Untermusbach,48.4993988,8.4694777
2421,Undervillier,,
2422,Ried,48.2902063,11.0425791
2423,Pasing,48.1477854,11.4607008
2424,Ostende,51.2258565,2.919496
2425,Muggendorf,47.9116889,15.9372977
2426,Numburg,51.4242461,10.9848143
2427,Ziehlschlacht,,
2428,Veltheim,52.2181829,10.6825692
2429,Moutier,47.2796142,7.3704192
2430,Davos-Dorf,46.8048524,9.8387391
2431,"Minneapolis, Minn.",44.9772995,-93.2654692
2432,Ruprechtsau,48.6114037,7.7879657
2433,Schöneberg,49.9204671,7.7494525
2434,Argelès-Bagnères,43.0892755,0.1965086
2435,Tatra-Lomniez,,
2436,Rezzonico,46.0700352,9.2773214
2437,Zihlschlacht-Sitterdorf,47.514206200000004,9.259269150287928
2438,Burg bei Murten,46.9279526,7.115151473309238
2439,Grand Saconnex,46.2363321,6.126532
2440,Criqueboeuf,49.221622999999994,0.0853439350201218
2441,L'Isle,45.1535408,0.5330697
2442,Ramsen,49.5369008,8.0133261
2443,Bussnang,47.5580779,9.0797264
2444,Wilhelmshöhe,52.2233691,15.4878321
2445,Hindelbank,47.0418711,7.5383058
2446,Chailly sur Lausanne,,
2447,Weerswilen,47.5747153,9.1338506
2448,Stettfurt,47.5250201,8.9545165
2449,Beromünster,47.2076373,8.1924386
2450,Hägendorf,47.3331671,7.8365612
2451,Ueberstorf,46.8650568,7.3114056
2452,Neuendorf,50.283075,6.4598166
2453,Kapelle zu Kreuzen,,
2454,Liesberg,47.4038612,7.4314696
2455,Orsonnens,46.7164717,6.9948874
2456,Wahlen,,
2457,Fontainemelon,,
2458,Niederbuchsiten,47.2977867,7.7713959
2459,Selzach,46.2241755,14.2035074
2460,Gries,48.7530555,7.8138887
2461,Kestenholz,48.272548,7.4013652
2462,Neudorf,47.6054816,7.5696755
2463,Jonen,47.2959739,8.3950641
2464,Sittgraven,,
2465,Chojne,51.53796,18.8122
2466,Zürich-Oberstrass,47.3857063,8.5491245
2467,Großmonra,51.2341485,11.313045426390644
2468,"Yacolt, Wash.",45.8655044,-122.4070314
2469,Krattigen,46.660973,7.7256121
2470,Oberwil im Simmental,46.6572051,7.4358295
2471,Hottingen,47.3696799,8.5550821
2472,Obstalden,47.1171128,9.1504524
2473,Ossingen,47.6128544,8.7283378
2474,Chigny,46.5201861,6.4773257
2475,Beuggen,47.5823763,7.8061053
2476,Göschenen,46.6676488,8.588703
2477,Mariafeld,,
2478,Puerto Orntavo,,
2479,Hirzel,47.2159036,8.6101778
2480,Vallombrosa,43.7327226,11.5550931
2481,Charlottenburg,52.5050484,13.3045162
2482,Manaton,50.6172738,-3.7676421
2483,Friedenau,,
2484,Stettin,53.4301818,14.5509623
2485,Kaiserswerth,51.3014826,6.7355171
2486,Gross-Flottbek,53.5655862,9.8792333
2487,Massagno,46.0126998,8.9443667
2488,Jugenheim,49.7565223,8.6353359
2489,Miécourt,47.4270918,7.1747627
2490,Cassel,51.3154546,9.4924096
2491,Vinelz,47.0328313,7.1104574
2492,Netphen-Eschenbach,50.9349459,8.128467063672952
2493,Langendorf,49.1962745,13.5092561
2494,Sölden,46.9673961,11.0070193
2495,Berlin-Westend,52.5180135,13.2844201
2496,Grunewald,52.460512800000004,13.23870853321047
2497,San Gimignano,43.4677993,11.0432115
2498,Aeschi bei Spiez,,
2499,Düren-Gürzenich,,
2500,Wannsee,52.4211482,13.1589374
2501,Sylt,54.90227835,8.331238679308914
2502,Sylt-Westerland,54.9064856,8.3071734
2503,Bad Heilbrunn,47.7463564,11.455267
2504,Neubabelsberg,52.402093,13.112648
2505,Makasser,,
2506,Hinnwil,,
2507,Lululaund,51.6441011,-0.3590786
2508,Lealuyi,,
2509,Fontfroide,,
2510,Schönenberg,47.5801211,6.8539291
2511,Villeret,,
2512,San Domenico,,
2513,Ins,47.0058984,7.1056472
2514,Stampa,46.3433069,9.590643
2515,Maillane,43.8325251,4.7825111
2516,"Indianapolis, Ind.",,
2517,Cambo-les-Bains,,
2518,Schwangau,47.5765415,10.7367936
2519,Simplon,48.8938481,2.3478412
2520,Arnarholt,64.6737763,-21.6290758
2521,Krieglach,47.5453375,15.5596098
2522,Departement Ain,46.0490578,5.3341271
2523,Waidbruck,46.5982585,11.5318969
2524,Kyrkstad (Finnland),60.1828988,23.9893475
2525,Jasnaja Poljana,43.9509336,46.7707454
2526,Giverny,49.0766185,1.5290285
2527,Thomery,,
2528,Schnottwil,47.1097738,7.391221
2529,Meina,,
2530,Peterhof,48.263751,11.7287186
2531,Teplitz-Schönau,50.637465,13.8246355
2532,Gmünd in Kärnten,46.9065611,13.5359844
2533,Reitnau,47.2513234,8.0449307
2534,Morschach,,
2535,Oensingen,47.285048,7.7097797
2536,Bottighofen,47.6386883,9.2068831
2537,Saint Paul,44.9497487,-93.0931028
2538,Bregenz-Mehrerau,47.503729,9.721013040572409
2539,Dirschau,54.0869532,18.8000293
2540,Grünewald,51.4013756,13.9976916
2541,Rigi-Kaltbad,47.0447063,8.4661769
2542,Marienberghausen,50.9197062,7.4950856
2543,Oberhof (Thüringen),50.6842117,10.709351
2544,Trebnitz,51.3096424,17.062596
2545,Budweis,48.9747357,14.474285
2546,Kralupp,,
2547,Rothenbach,50.5638726,7.9004779
2548,Engi,46.9827634,9.1523442
2549,Güttingen,47.7723234,8.9903648
2550,Buch,50.2051609,7.8759628
2551,Beaumont über Biel,,
2552,Egg-Dussnang,,
2553,Luzein,46.965818350000006,9.81518352760624
2554,Kaltbrunn,47.2134573,9.0249831
2555,Kefikon,47.5475804,8.8309741
2556,Courtelle,47.5536911,-0.8748614
2557,Iseltwald,,
2558,Friedrichsruhe,53.5282685,11.7514265
2559,Gunten,47.5335081,8.8260171
2560,Tahiti,-17.68734395,-149.44516811423745
2561,Liwadija,,
2562,Burwash Sussex,50.9976121,0.3854463
2563,Vahrn,46.7403856,11.6345693
2564,Subingen,47.1939523,7.6159259
2565,Münchendorf,48.0298076,16.3791947
2566,Himmelried,47.4212297,7.5980409
2567,Weiningen,47.4199708,8.4366271
2568,Diessen,51.4762167,5.1751483
2569,Guatapara,-21.496092,-48.0360685
2570,Zottelstedt,51.0543909,11.4938166
2571,Oberhof,50.7067756,10.7257435
2572,Grünewalde,52.0283151,11.7453684
2573,Marquartstein,47.7608226,12.4604809
2574,Heppenheim (Bergstraße),49.64999,8.66768
2575,Freiburg im Üechtland-Pérolles,,
2576,Münchengladbach,,
2577,Henstridge,50.977283,-2.3945097
2578,Wildbad Kreuth,47.6224766,11.7423962
2579,Gatschina (Russland),59.5518553,30.1329811
2580,Vagold,,
2581,Berg,49.4307696,6.3111933
2582,Hüsingen,47.6306666,7.7403403
2583,Saint-Gingolph,46.38902065,6.775638784558138
2584,Bad Ramsach,47.4062598,7.8722368
2585,Zunzgen,47.4504005,7.80462
2586,Nieder-Schönthal,,
2587,Gallneukirchen,48.3531392,14.4164196
2588,Nabern,48.6150601,9.4839258
2589,Berthelsdorf,51.0302053,14.7621622
2590,Dürrenäsch,47.3215135,8.1571142
2591,Sankt Moritz-Dorf,46.4982358,9.8385893
2592,Münchwilen TG,47.4777697,8.9976456
2593,Hefenhausen,47.6177287,9.0634695
2594,Wittenberg,51.8666527,12.646761
2595,Landschlacht,47.6262649,9.2474244
2596,Lützelflüh,47.0093461,7.6886004
2597,Tägerwilen,47.6563994,9.1310646
2598,Steinebrunn,47.5340006,9.3431211
2599,Friedrichsroda,,
2600,Lautenthal,51.870256,10.2880856
2601,Schwarzburg,50.6420752,11.1956622
2602,Busseto,44.9809569,10.0424746
2603,Saint-Cergue,46.4460968,6.158111
2604,Sankt Gallen- Bruggen,47.41031,9.3345864
2605,Reute,48.0821723,7.820585
2606,Steglitz,52.4572569,13.3222865
2607,Nowawes,52.3966915,13.090027
2608,Kornthal,47.0870815,17.4737817
2609,Ouchy,-19.9077718,140.9236165
2610,Rigi Scheidegg,47.0257542,8.519046622773022
2611,Cartigny,49.91327,3.00835
2612,Grünegg,47.624790250000004,8.86997792192994
2613,Wannsee Berlin,52.4211482,13.1589374
2614,Dottenvik,,
2615,Bärenfels,48.6602914,8.2334033
2616,Bad Gastein,47.087112399999995,13.16085298508295
2617,Belem,-1.45056,-48.4682453
2618,Le Hâvre,49.4938975,0.1079732
2619,St. Margherita (Liguria),44.3339761,9.2111267
2620,Nervi,44.3833121,9.0391295
2621,Kissingen,50.227559549999995,10.002340805082433
2622,Raudnitz an der Elbe,50.4244462,14.2603824
2623,Grötzingen bei Karlsruhe,,
2624,Wilhelmsdorf,47.864875,9.4255639
2625,Cossonay,46.6138202,6.508938
2626,Ottenhöfen im Schwarzwald,48.5604477,8.164961893824376
2627,New Jersey,40.0757384,-74.4041622
2628,Grönland,53.8221741,9.5850847
2629,Glarisegg,47.6557958,8.959995
2630,Davos-Wolfgang,46.8318035,9.8548771
2631,Villa Lante,42.4240622,12.153999105210161
2632,Domaine de Pailly,,
2633,Henkenhagen,54.2135984,15.7560763
2634,Riederalp,46.3782021,8.0334815
2635,Merligen,46.6964202,7.7386299
